<?xml version="1.0" encoding="UTF-8"?>
<!-- written by WED 2.4.0r2 -->
<doc>
  <objects>
    <object class="WED_AirportChain" id="1008" parent_id="15">
      <children>
        <child id="1009"/>
        <child id="1012"/>
        <child id="1010"/>
      </children>
      <hierarchy name="A2" locked="0" hidden="0"/>
      <airport_chain closed="0"/>
    </object>
    <object class="WED_Root" id="1" parent_id="0">
      <children>
        <child id="2"/>
        <child id="3"/>
        <child id="4"/>
      </children>
      <hierarchy name="root"/>
    </object>
    <object class="WED_AirportNode" id="944" parent_id="97">
      <children/>
      <hierarchy name="unnamed entity" locked="0" hidden="0"/>
      <point latitude="30.632529599" longitude="-88.073109933" split="0" ctrl_latitude_lo="0.0" ctrl_longitude_lo="0.0" ctrl_latitude_hi="0.0" ctrl_longitude_hi="0.0"/>
      <markings/>
    </object>
    <object class="WED_Group" id="9" parent_id="5">
      <children>
        <child id="2404"/>
        <child id="2399"/>
        <child id="2392"/>
        <child id="2387"/>
        <child id="549"/>
        <child id="552"/>
        <child id="668"/>
        <child id="717"/>
        <child id="721"/>
        <child id="1323"/>
        <child id="1322"/>
        <child id="1321"/>
        <child id="1320"/>
        <child id="1319"/>
        <child id="1190"/>
        <child id="1199"/>
        <child id="1198"/>
        <child id="1197"/>
        <child id="1196"/>
        <child id="1195"/>
        <child id="1194"/>
        <child id="1193"/>
        <child id="1192"/>
        <child id="1191"/>
        <child id="2015"/>
        <child id="2207"/>
        <child id="2202"/>
        <child id="2196"/>
        <child id="2172"/>
        <child id="2106"/>
        <child id="2166"/>
        <child id="2154"/>
        <child id="2148"/>
        <child id="2142"/>
        <child id="2100"/>
        <child id="2239"/>
        <child id="2234"/>
        <child id="2227"/>
        <child id="2216"/>
        <child id="2269"/>
        <child id="2275"/>
        <child id="2263"/>
        <child id="2257"/>
        <child id="2252"/>
        <child id="2246"/>
        <child id="2302"/>
        <child id="2290"/>
        <child id="2297"/>
        <child id="2285"/>
        <child id="2326"/>
        <child id="2320"/>
        <child id="2347"/>
        <child id="2314"/>
        <child id="2372"/>
        <child id="2365"/>
        <child id="2377"/>
        <child id="2341"/>
      </children>
      <hierarchy name="Markings" locked="0" hidden="0"/>
    </object>
    <object class="WED_AirportNode" id="952" parent_id="97">
      <children/>
      <hierarchy name="unnamed entity" locked="0" hidden="0"/>
      <point latitude="30.634034281" longitude="-88.077629649" split="0" ctrl_latitude_lo="0.0" ctrl_longitude_lo="0.0" ctrl_latitude_hi="0.0" ctrl_longitude_hi="0.0"/>
      <markings/>
    </object>
    <object class="WED_Select" id="2" parent_id="1">
      <children/>
      <hierarchy name="selection"/>
      <selection>
        <sel id="6298"/>
      </selection>
    </object>
    <object class="WED_ObjPlacement" id="3517" parent_id="3465">
      <children/>
      <hierarchy name="Parking_Stop_Yellow.obj" locked="0" hidden="0"/>
      <point latitude="30.641271465" longitude="-88.077931011" heading="287.57"/>
      <obj_placement custom_msl="0" msl="0.0" resource="MisterX_Library/Vehicles/Parking/Parking_Stop_Yellow.obj" show_level="1 Default"/>
    </object>
    <object class="WED_AirportChain" id="1054" parent_id="15">
      <children>
        <child id="1055"/>
        <child id="1057"/>
        <child id="1056"/>
      </children>
      <hierarchy name="10" locked="0" hidden="0"/>
      <airport_chain closed="0"/>
    </object>
    <object class="WED_DrapedOrthophoto" id="1970" parent_id="1969">
      <children>
        <child id="1971"/>
      </children>
      <hierarchy name="Backgrounds_Black_Y.pol" locked="0" hidden="0"/>
      <draped_orthophoto heading="-0.2" resource="MisterX_Library/Airport/Ground_Markings/Painted_Signs/Backgrounds_Black_Y.pol" tex_top="0.6300" tex_bottom="0.2650" tex_left="0.0050" tex_right="0.3700"/>
    </object>
    <object class="WED_KeyObjects" id="3" parent_id="1">
      <children/>
      <hierarchy name="choices"/>
      <keys>
        <key name="airport" id="5"/>
      </keys>
    </object>
    <object class="WED_AirportNode" id="1064" parent_id="1062">
      <children/>
      <hierarchy name="Node 2" locked="0" hidden="0"/>
      <point latitude="30.630594117" longitude="-88.072846391" split="0" ctrl_latitude_lo="0.0" ctrl_longitude_lo="0.0" ctrl_latitude_hi="0.0" ctrl_longitude_hi="0.0"/>
      <markings>
        <marking value="Solid Yellow"/>
        <marking value="Taxiway Centerline Lights (Green)"/>
      </markings>
    </object>
    <object class="WED_TextureBezierNode" id="2395" parent_id="2393">
      <children/>
      <hierarchy name="Node 2" locked="0" hidden="0"/>
      <point latitude="30.622642589" longitude="-88.066975508" split="0" ctrl_latitude_lo="0.0" ctrl_longitude_lo="0.0" ctrl_latitude_hi="0.0" ctrl_longitude_hi="0.0"/>
      <texture_node s="1.0000" t="0.0" sc_lo="0.0" tc_lo="0.0" sc_hi="0.0" tc_hi="0.0"/>
    </object>
    <object class="WED_TextureBezierNode" id="3786" parent_id="3784">
      <children/>
      <hierarchy name="Node 2" locked="0" hidden="0"/>
      <point latitude="30.636814851" longitude="-88.079335376" split="0" ctrl_latitude_lo="0.0" ctrl_longitude_lo="0.0" ctrl_latitude_hi="0.0" ctrl_longitude_hi="0.0"/>
      <texture_node s="1.0000" t="0.0" sc_lo="0.0" tc_lo="0.0" sc_hi="0.0" tc_hi="0.0"/>
    </object>
    <object class="WED_Group" id="4" parent_id="1">
      <children>
        <child id="5"/>
      </children>
      <hierarchy name="world" locked="0" hidden="0"/>
    </object>
    <object class="WED_AirportNode" id="948" parent_id="97">
      <children/>
      <hierarchy name="unnamed entity" locked="0" hidden="0"/>
      <point latitude="30.632781480" longitude="-88.076720316" split="1" ctrl_latitude_lo="-0.000318197" ctrl_longitude_lo="0.000375758" ctrl_latitude_hi="0.000104859" ctrl_longitude_hi="-0.000137432"/>
      <markings>
        <marking value="Double Solid Yellow"/>
        <marking value="Taxiway Edge Lights (Blue)"/>
      </markings>
    </object>
    <object class="WED_Airport" id="5" parent_id="4">
      <children>
        <child id="5017"/>
        <child id="2464"/>
        <child id="1709"/>
        <child id="6"/>
        <child id="8"/>
        <child id="9"/>
        <child id="10"/>
        <child id="11"/>
        <child id="12"/>
        <child id="15"/>
        <child id="16"/>
        <child id="17"/>
        <child id="853"/>
        <child id="2525"/>
        <child id="863"/>
        <child id="866"/>
      </children>
      <hierarchy name="Mobile Downtown" locked="0" hidden="0"/>
      <airport kind="Airport" elevation="7.3" has_atc="1" icao="KBFM" always_flatten="0" drive_on_left="0" scenery_id="1752"/>
      <meta_data>
        <meta_data_entry pair="city,Mobile"/>
        <meta_data_entry pair="country,United States"/>
        <meta_data_entry pair="datum_lat,30.626777778"/>
        <meta_data_entry pair="datum_lon,-88.068083333"/>
        <meta_data_entry pair="faa_code,BFM"/>
        <meta_data_entry pair="gui_label,3D"/>
        <meta_data_entry pair="iata_code,BFM"/>
        <meta_data_entry pair="icao_code,KBFM"/>
        <meta_data_entry pair="region_code,K7"/>
        <meta_data_entry pair="state,Alabama"/>
        <meta_data_entry pair="transition_alt,18000"/>
        <meta_data_entry pair="transition_level,18000"/>
      </meta_data>
    </object>
    <object class="WED_AirportChain" id="1066" parent_id="15">
      <children>
        <child id="1067"/>
        <child id="1069"/>
        <child id="1068"/>
      </children>
      <hierarchy name="9" locked="0" hidden="0"/>
      <airport_chain closed="0"/>
    </object>
    <object class="WED_Ring" id="3090" parent_id="3089">
      <children>
        <child id="3091"/>
        <child id="3092"/>
        <child id="3093"/>
        <child id="3094"/>
      </children>
      <hierarchy name="Polygon 15 Outer Ring" locked="0" hidden="0"/>
    </object>
    <object class="WED_Group" id="6" parent_id="5">
      <children>
        <child id="838"/>
        <child id="839"/>
        <child id="840"/>
        <child id="841"/>
        <child id="842"/>
        <child id="843"/>
      </children>
      <hierarchy name="ATC" locked="0" hidden="0"/>
    </object>
    <object class="WED_AirportNode" id="1124" parent_id="1122">
      <children/>
      <hierarchy name="Node 2" locked="0" hidden="0"/>
      <point latitude="30.632633853" longitude="-88.069984807" split="0" ctrl_latitude_lo="0.0" ctrl_longitude_lo="0.0" ctrl_latitude_hi="0.0" ctrl_longitude_hi="0.0"/>
      <markings>
        <marking value="Solid Yellow"/>
        <marking value="Taxiway Centerline Lights (Green)"/>
      </markings>
    </object>
    <object class="WED_Group" id="8" parent_id="5">
      <children>
        <child id="766"/>
        <child id="767"/>
        <child id="768"/>
        <child id="769"/>
      </children>
      <hierarchy name="PAPI" locked="0" hidden="0"/>
    </object>
    <object class="WED_ObjPlacement" id="3515" parent_id="3465">
      <children/>
      <hierarchy name="Parking_Stop_Yellow.obj" locked="0" hidden="0"/>
      <point latitude="30.641219078" longitude="-88.077950105" heading="287.57"/>
      <obj_placement custom_msl="0" msl="0.0" resource="MisterX_Library/Vehicles/Parking/Parking_Stop_Yellow.obj" show_level="1 Default"/>
    </object>
    <object class="WED_AirportNode" id="1126" parent_id="1125">
      <children/>
      <hierarchy name="Node 1" locked="0" hidden="0"/>
      <point latitude="30.633004467" longitude="-88.069901837" split="0" ctrl_latitude_lo="0.0" ctrl_longitude_lo="0.0" ctrl_latitude_hi="0.0" ctrl_longitude_hi="0.0"/>
      <markings>
        <marking value="Solid Yellow"/>
        <marking value="Taxiway Centerline Lights (Green)"/>
      </markings>
    </object>
    <object class="WED_Group" id="10" parent_id="5">
      <children>
        <child id="2005"/>
      </children>
      <hierarchy name="Ramp Starts" locked="0" hidden="0"/>
    </object>
    <object class="WED_Group" id="11" parent_id="5">
      <children>
        <child id="18"/>
        <child id="21"/>
      </children>
      <hierarchy name="Runways" locked="0" hidden="0"/>
    </object>
    <object class="WED_ObjPlacement" id="6563" parent_id="6448">
      <children/>
      <hierarchy name="jersey_barrier_red_single.obj" locked="0" hidden="0"/>
      <point latitude="30.636657218" longitude="-88.075868438" heading="321.11"/>
      <obj_placement custom_msl="0" msl="0.0" resource="handyobjects/gatesandfences/jersey_barrier_red_single.obj" show_level="1 Default"/>
    </object>
    <object class="WED_AirportNode" id="1072" parent_id="1070">
      <children/>
      <hierarchy name="Node 1" locked="0" hidden="0"/>
      <point latitude="30.631066813" longitude="-88.072659122" split="1" ctrl_latitude_lo="0.000002869" ctrl_longitude_lo="0.000166726" ctrl_latitude_hi="-0.000008607" ctrl_longitude_hi="-0.000136521"/>
      <markings>
        <marking value="Solid Yellow"/>
        <marking value="Taxiway Centerline Lights (Green)"/>
      </markings>
    </object>
    <object class="WED_AirportChain" id="3096" parent_id="3095">
      <children>
        <child id="3097"/>
        <child id="3098"/>
        <child id="3099"/>
        <child id="3100"/>
      </children>
      <hierarchy name="Taxiway 16 Outer Ring" locked="0" hidden="0"/>
      <airport_chain closed="1"/>
    </object>
    <object class="WED_Group" id="12" parent_id="5">
      <children>
        <child id="770"/>
        <child id="771"/>
        <child id="772"/>
        <child id="773"/>
        <child id="774"/>
        <child id="775"/>
        <child id="776"/>
        <child id="777"/>
        <child id="778"/>
        <child id="779"/>
        <child id="780"/>
        <child id="781"/>
        <child id="782"/>
        <child id="783"/>
        <child id="784"/>
        <child id="785"/>
        <child id="786"/>
        <child id="787"/>
        <child id="788"/>
        <child id="789"/>
        <child id="790"/>
        <child id="791"/>
        <child id="792"/>
        <child id="793"/>
        <child id="794"/>
        <child id="795"/>
        <child id="796"/>
        <child id="797"/>
        <child id="798"/>
        <child id="799"/>
        <child id="800"/>
        <child id="801"/>
        <child id="810"/>
        <child id="1348"/>
        <child id="1347"/>
        <child id="1346"/>
        <child id="813"/>
        <child id="814"/>
        <child id="815"/>
        <child id="816"/>
        <child id="817"/>
        <child id="818"/>
        <child id="2085"/>
        <child id="2072"/>
        <child id="819"/>
        <child id="820"/>
        <child id="823"/>
        <child id="824"/>
        <child id="1344"/>
        <child id="1343"/>
        <child id="1342"/>
        <child id="827"/>
        <child id="1339"/>
        <child id="828"/>
        <child id="1403"/>
        <child id="1341"/>
      </children>
      <hierarchy name="Signs" locked="0" hidden="0"/>
    </object>
    <object class="WED_AirportNode" id="956" parent_id="97">
      <children/>
      <hierarchy name="unnamed entity" locked="0" hidden="0"/>
      <point latitude="30.632197941" longitude="-88.077381075" split="1" ctrl_latitude_lo="-0.000146363" ctrl_longitude_lo="-0.000352640" ctrl_latitude_hi="0.000092816" ctrl_longitude_hi="0.000265517"/>
      <markings>
        <marking value="Double Solid Yellow"/>
        <marking value="Taxiway Edge Lights (Blue)"/>
      </markings>
    </object>
    <object class="WED_AirportChain" id="1074" parent_id="15">
      <children>
        <child id="1075"/>
        <child id="1076"/>
        <child id="1078"/>
        <child id="1077"/>
      </children>
      <hierarchy name="8" locked="0" hidden="0"/>
      <airport_chain closed="0"/>
    </object>
    <object class="WED_Ring" id="2477" parent_id="2482">
      <children>
        <child id="2478"/>
        <child id="2479"/>
        <child id="2480"/>
        <child id="2481"/>
      </children>
      <hierarchy name="Image Boundary" locked="0" hidden="0"/>
    </object>
    <object class="WED_ObjPlacement" id="2780" parent_id="2759">
      <children/>
      <hierarchy name="Parking_Space_8.obj" locked="0" hidden="0"/>
      <point latitude="30.646261098" longitude="-88.075715591" heading="17.43"/>
      <obj_placement custom_msl="0" msl="0.0" resource="MisterX_Library/Airport/Ground_Markings/Parking_Spaces/Parking_Space_8.obj" show_level="1 Default"/>
    </object>
    <object class="WED_Group" id="15" parent_id="5">
      <children>
        <child id="40"/>
        <child id="992"/>
        <child id="2077"/>
        <child id="2383"/>
        <child id="1427"/>
        <child id="2338"/>
        <child id="2335"/>
        <child id="1424"/>
        <child id="96"/>
        <child id="139"/>
        <child id="2040"/>
        <child id="2051"/>
        <child id="2021"/>
        <child id="301"/>
        <child id="308"/>
        <child id="1969"/>
        <child id="1944"/>
        <child id="1919"/>
        <child id="1881"/>
        <child id="1880"/>
        <child id="1795"/>
        <child id="1782"/>
        <child id="1732"/>
        <child id="1751"/>
        <child id="1658"/>
        <child id="1677"/>
        <child id="1598"/>
        <child id="1597"/>
        <child id="1600"/>
        <child id="1599"/>
        <child id="978"/>
        <child id="989"/>
        <child id="984"/>
        <child id="1160"/>
        <child id="1151"/>
        <child id="342"/>
        <child id="352"/>
        <child id="369"/>
        <child id="450"/>
        <child id="500"/>
        <child id="511"/>
        <child id="1510"/>
        <child id="1504"/>
        <child id="1520"/>
        <child id="1517"/>
        <child id="1495"/>
        <child id="1419"/>
        <child id="1416"/>
        <child id="1410"/>
        <child id="1407"/>
        <child id="1404"/>
        <child id="1336"/>
        <child id="1333"/>
        <child id="1330"/>
        <child id="1327"/>
        <child id="1324"/>
        <child id="1137"/>
        <child id="1134"/>
        <child id="1131"/>
        <child id="1128"/>
        <child id="1125"/>
        <child id="1122"/>
        <child id="1119"/>
        <child id="1116"/>
        <child id="1113"/>
        <child id="1110"/>
        <child id="1107"/>
        <child id="1104"/>
        <child id="1101"/>
        <child id="1098"/>
        <child id="1095"/>
        <child id="1091"/>
        <child id="1087"/>
        <child id="1083"/>
        <child id="1079"/>
        <child id="1066"/>
        <child id="1074"/>
        <child id="1070"/>
        <child id="1062"/>
        <child id="1058"/>
        <child id="1054"/>
        <child id="1019"/>
        <child id="1013"/>
        <child id="1008"/>
        <child id="1000"/>
        <child id="1232"/>
        <child id="1229"/>
        <child id="1216"/>
        <child id="1209"/>
        <child id="2281"/>
        <child id="2093"/>
        <child id="2090"/>
      </children>
      <hierarchy name="Taxiways" locked="0" hidden="0"/>
    </object>
    <object class="WED_AirportNode" id="1132" parent_id="1131">
      <children/>
      <hierarchy name="Node 1" locked="0" hidden="0"/>
      <point latitude="30.633013110" longitude="-88.069440528" split="0" ctrl_latitude_lo="0.0" ctrl_longitude_lo="0.0" ctrl_latitude_hi="0.0" ctrl_longitude_hi="0.0"/>
      <markings>
        <marking value="Solid Yellow"/>
        <marking value="Taxiway Centerline Lights (Green)"/>
      </markings>
    </object>
    <object class="WED_Group" id="16" parent_id="5">
      <children>
        <child id="523"/>
        <child id="833"/>
        <child id="834"/>
      </children>
      <hierarchy name="Tower, Beacon and Boundaries" locked="0" hidden="0"/>
    </object>
    <object class="WED_Group" id="17" parent_id="5">
      <children>
        <child id="836"/>
        <child id="837"/>
      </children>
      <hierarchy name="Windsocks" locked="0" hidden="0"/>
    </object>
    <object class="WED_AirportChain" id="1134" parent_id="15">
      <children>
        <child id="1135"/>
        <child id="1142"/>
        <child id="1141"/>
        <child id="1136"/>
      </children>
      <hierarchy name="Linear Feature 35" locked="0" hidden="0"/>
      <airport_chain closed="0"/>
    </object>
    <object class="WED_Runway" id="18" parent_id="11">
      <children>
        <child id="19"/>
        <child id="20"/>
      </children>
      <hierarchy name="14/32" locked="0" hidden="0"/>
      <line width="45.72"/>
      <runway surface="Concrete" shoulder="Concrete" roughness="0.25" center_lites="1" edge_lites="HIRL" distance_signs="0" displaced1="0.0" blastpad1="87.0" markings1="Non-Precision (US)" app_lites1="None" TDZL1="0" REIL1="Omnidirectional REIL" displaced2="0.0" blastpad2="84.0" markings2="Precision (US)" app_lites2="MALSR" TDZL2="1" REIL2="None"/>
    </object>
    <object class="WED_ObjPlacement" id="3469" parent_id="3465">
      <children/>
      <hierarchy name="Parking_Space_10.obj" locked="0" hidden="0"/>
      <point latitude="30.641832420" longitude="-88.077818923" heading="287.76"/>
      <obj_placement custom_msl="0" msl="0.0" resource="MisterX_Library/Airport/Ground_Markings/Parking_Spaces/Parking_Space_10.obj" show_level="1 Default"/>
    </object>
    <object class="WED_RunwayNode" id="19" parent_id="18">
      <children/>
      <hierarchy name="unnamed entity" locked="0" hidden="0"/>
      <point latitude="30.633083000" longitude="-88.079942000"/>
    </object>
    <object class="WED_TextureBezierNode" id="1922" parent_id="1921">
      <children/>
      <hierarchy name="Node 1" locked="0" hidden="0"/>
      <point latitude="30.632521104" longitude="-88.070767960" split="0" ctrl_latitude_lo="0.0" ctrl_longitude_lo="0.0" ctrl_latitude_hi="0.0" ctrl_longitude_hi="0.0"/>
      <texture_node s="0.0050" t="0.2650" sc_lo="0.0" tc_lo="0.0" sc_hi="0.0" tc_hi="0.0"/>
    </object>
    <object class="WED_AirportNode" id="1080" parent_id="1079">
      <children/>
      <hierarchy name="Node 1" locked="0" hidden="0"/>
      <point latitude="30.631396389" longitude="-88.072424923" split="0" ctrl_latitude_lo="0.0" ctrl_longitude_lo="0.0" ctrl_latitude_hi="0.0" ctrl_longitude_hi="0.0"/>
      <markings>
        <marking value="Solid Yellow"/>
        <marking value="Taxiway Centerline Lights (Green)"/>
      </markings>
    </object>
    <object class="WED_AirportNode" id="2475" parent_id="2457">
      <children/>
      <hierarchy name="Node 2" locked="0" hidden="0"/>
      <point latitude="30.645332992" longitude="-88.075723346" split="1" ctrl_latitude_lo="0.0" ctrl_longitude_lo="0.0" ctrl_latitude_hi="0.0" ctrl_longitude_hi="0.0"/>
      <markings>
        <marking value="Solid White (Roadway)"/>
      </markings>
    </object>
    <object class="WED_Ring" id="3802" parent_id="3801">
      <children>
        <child id="3803"/>
        <child id="3804"/>
        <child id="3805"/>
        <child id="3806"/>
      </children>
      <hierarchy name="Orthophoto 19 Outer Ring" locked="0" hidden="0"/>
    </object>
    <object class="WED_RunwayNode" id="20" parent_id="18">
      <children/>
      <hierarchy name="unnamed entity" locked="0" hidden="0"/>
      <point latitude="30.613203000" longitude="-88.059781000"/>
    </object>
    <object class="WED_AirportNode" id="1415" parent_id="1410">
      <children/>
      <hierarchy name="Node 1" locked="0" hidden="0"/>
      <point latitude="30.628905453" longitude="-88.071338021" split="1" ctrl_latitude_lo="-0.000049581" ctrl_longitude_lo="-0.000158453" ctrl_latitude_hi="0.000116515" ctrl_longitude_hi="0.000233358"/>
      <markings>
        <marking value="Solid Yellow"/>
        <marking value="Taxiway Centerline Lights (Green)"/>
      </markings>
    </object>
    <object class="WED_Runway" id="21" parent_id="11">
      <children>
        <child id="22"/>
        <child id="23"/>
      </children>
      <hierarchy name="18/36" locked="0" hidden="0"/>
      <line width="45.72"/>
      <runway surface="Concrete" shoulder="None" roughness="0.25" center_lites="0" edge_lites="MIRL" distance_signs="0" displaced1="0.0" blastpad1="0.0" markings1="Non-Precision (US)" app_lites1="None" TDZL1="0" REIL1="None" displaced2="0.0" blastpad2="0.0" markings2="Non-Precision (US)" app_lites2="None" TDZL2="0" REIL2="None"/>
    </object>
    <object class="WED_Ring" id="2501" parent_id="2506">
      <children>
        <child id="2502"/>
        <child id="2503"/>
        <child id="2504"/>
        <child id="2505"/>
      </children>
      <hierarchy name="Image Boundary" locked="0" hidden="0"/>
    </object>
    <object class="WED_ObjPlacement" id="6581" parent_id="6448">
      <children/>
      <hierarchy name="jersey_barrier_red_single.obj" locked="0" hidden="0"/>
      <point latitude="30.636835033" longitude="-88.076028259" heading="322.65"/>
      <obj_placement custom_msl="0" msl="0.0" resource="handyobjects/gatesandfences/jersey_barrier_red_single.obj" show_level="1 Default"/>
    </object>
    <object class="WED_AirportNode" id="1082" parent_id="1079">
      <children/>
      <hierarchy name="Node 1" locked="0" hidden="0"/>
      <point latitude="30.631430899" longitude="-88.072671549" split="1" ctrl_latitude_lo="0.000017216" ctrl_longitude_lo="0.000148054" ctrl_latitude_hi="-0.000018937" ctrl_longitude_hi="-0.000158057"/>
      <markings>
        <marking value="Solid Yellow"/>
        <marking value="Taxiway Centerline Lights (Green)"/>
      </markings>
    </object>
    <object class="WED_AirportNode" id="3170" parent_id="3166">
      <children/>
      <hierarchy name="Node 4" locked="0" hidden="0"/>
      <point latitude="30.646321863" longitude="-88.075408876" split="0" ctrl_latitude_lo="0.0" ctrl_longitude_lo="0.0" ctrl_latitude_hi="0.0" ctrl_longitude_hi="0.0"/>
      <markings>
        <marking value="Solid White (Roadway)"/>
      </markings>
    </object>
    <object class="WED_RunwayNode" id="22" parent_id="21">
      <children/>
      <hierarchy name="unnamed entity" locked="0" hidden="0"/>
      <point latitude="30.641994000" longitude="-88.065917000"/>
    </object>
    <object class="WED_AirportNode" id="1409" parent_id="1407">
      <children/>
      <hierarchy name="Node 2" locked="0" hidden="0"/>
      <point latitude="30.633285579" longitude="-88.077597098" split="0" ctrl_latitude_lo="0.0" ctrl_longitude_lo="0.0" ctrl_latitude_hi="0.0" ctrl_longitude_hi="0.0"/>
      <markings>
        <marking value="Solid Yellow"/>
        <marking value="Taxiway Centerline Lights (Green)"/>
      </markings>
    </object>
    <object class="WED_RunwayNode" id="23" parent_id="21">
      <children/>
      <hierarchy name="unnamed entity" locked="0" hidden="0"/>
      <point latitude="30.620550000" longitude="-88.065903000"/>
    </object>
    <object class="WED_AirportNode" id="1140" parent_id="1137">
      <children/>
      <hierarchy name="Node 1" locked="0" hidden="0"/>
      <point latitude="30.632825947" longitude="-88.068707798" split="1" ctrl_latitude_lo="0.000083189" ctrl_longitude_lo="0.000011193" ctrl_latitude_hi="-0.000184145" ctrl_longitude_hi="-0.000019298"/>
      <markings>
        <marking value="Solid Yellow"/>
        <marking value="Taxiway Centerline Lights (Green)"/>
      </markings>
    </object>
    <object class="WED_ObjPlacement" id="904" parent_id="863">
      <children/>
      <hierarchy name="Lg_Maint_Brown.agp" locked="0" hidden="0"/>
      <point latitude="30.642531253" longitude="-88.074300978" heading="17.33"/>
      <obj_placement custom_msl="0" msl="0.0" resource="lib/airport/Common_Elements/Hangars/Lg_Maint_Brown.agp" show_level="1 Default"/>
    </object>
    <object class="WED_AirportNode" id="481" parent_id="451">
      <children/>
      <hierarchy name="unnamed entity" locked="0" hidden="0"/>
      <point latitude="30.630694740" longitude="-88.067831640" split="0" ctrl_latitude_lo="0.0" ctrl_longitude_lo="0.0" ctrl_latitude_hi="0.0" ctrl_longitude_hi="0.0"/>
      <markings>
        <marking value="Double Solid Yellow"/>
        <marking value="Taxiway Edge Lights (Blue)"/>
      </markings>
    </object>
    <object class="WED_AirportNode" id="1142" parent_id="1134">
      <children/>
      <hierarchy name="Node 1" locked="0" hidden="0"/>
      <point latitude="30.632860866" longitude="-88.068785990" split="1" ctrl_latitude_lo="0.000049453" ctrl_longitude_lo="0.000010832" ctrl_latitude_hi="-0.000067515" ctrl_longitude_hi="-0.000040476"/>
      <markings>
        <marking value="Solid Yellow"/>
        <marking value="Taxiway Centerline Lights (Green)"/>
      </markings>
    </object>
    <object class="WED_AirportChain" id="3176" parent_id="2458">
      <children>
        <child id="3177"/>
        <child id="3178"/>
        <child id="3179"/>
        <child id="3180"/>
      </children>
      <hierarchy name="Hole 29" locked="0" hidden="0"/>
      <airport_chain closed="1"/>
    </object>
    <object class="WED_TextureNode" id="2499" parent_id="2495">
      <children/>
      <hierarchy name="Corner 4" locked="0" hidden="0"/>
      <point latitude="30.656815564" longitude="-88.066406250"/>
      <texture_node s="0.0" t="1.0000"/>
    </object>
    <object class="WED_ObjPlacement" id="5200" parent_id="5195">
      <children/>
      <hierarchy name="Random.obj" locked="0" hidden="0"/>
      <point latitude="30.634761266" longitude="-88.077044392" heading="140.92"/>
      <obj_placement custom_msl="0" msl="0.0" resource="MisterX_Library/Airport/Aircraft/Cessna_172/Random.obj" show_level="1 Default"/>
    </object>
    <object class="WED_AirportNode" id="1024" parent_id="1019">
      <children/>
      <hierarchy name="Node 1" locked="0" hidden="0"/>
      <point latitude="30.633436038" longitude="-88.079270610" split="1" ctrl_latitude_lo="0.0" ctrl_longitude_lo="0.0" ctrl_latitude_hi="0.0" ctrl_longitude_hi="0.0"/>
      <markings>
        <marking value="Solid Yellow"/>
        <marking value="Taxiway Centerline Lights (Green)"/>
      </markings>
    </object>
    <object class="WED_AirportNode" id="1423" parent_id="1419">
      <children/>
      <hierarchy name="Node 1" locked="0" hidden="0"/>
      <point latitude="30.628333168" longitude="-88.072292751" split="1" ctrl_latitude_lo="0.000048984" ctrl_longitude_lo="0.000213228" ctrl_latitude_hi="-0.000048618" ctrl_longitude_hi="-0.000262472"/>
      <markings>
        <marking value="Solid Yellow"/>
        <marking value="Taxiway Centerline Lights (Green)"/>
      </markings>
    </object>
    <object class="WED_TextureNode" id="2493" parent_id="2489">
      <children/>
      <hierarchy name="Corner 4" locked="0" hidden="0"/>
      <point latitude="30.656815564" longitude="-88.088378906"/>
      <texture_node s="0.0" t="1.0000"/>
    </object>
    <object class="WED_AirportNode" id="485" parent_id="451">
      <children/>
      <hierarchy name="unnamed entity" locked="0" hidden="0"/>
      <point latitude="30.630719414" longitude="-88.071328650" split="0" ctrl_latitude_lo="0.0" ctrl_longitude_lo="0.0" ctrl_latitude_hi="0.0" ctrl_longitude_hi="0.0"/>
      <markings>
        <marking value="Double Solid Yellow"/>
        <marking value="Taxiway Edge Lights (Blue)"/>
      </markings>
    </object>
    <object class="WED_AirportNode" id="1417" parent_id="1416">
      <children/>
      <hierarchy name="Node 1" locked="0" hidden="0"/>
      <point latitude="30.628492398" longitude="-88.071969826" split="0" ctrl_latitude_lo="0.0" ctrl_longitude_lo="0.0" ctrl_latitude_hi="0.0" ctrl_longitude_hi="0.0"/>
      <markings>
        <marking value="Solid Yellow"/>
        <marking value="Taxiway Centerline Lights (Green)"/>
      </markings>
    </object>
    <object class="WED_AirportNode" id="1084" parent_id="1083">
      <children/>
      <hierarchy name="Node 1" locked="0" hidden="0"/>
      <point latitude="30.631395614" longitude="-88.072425663" split="0" ctrl_latitude_lo="0.0" ctrl_longitude_lo="0.0" ctrl_latitude_hi="0.0" ctrl_longitude_hi="0.0"/>
      <markings>
        <marking value="Solid Yellow"/>
        <marking value="Taxiway Centerline Lights (Green)"/>
      </markings>
    </object>
    <object class="WED_AirportNode" id="1086" parent_id="1083">
      <children/>
      <hierarchy name="Node 1" locked="0" hidden="0"/>
      <point latitude="30.631322511" longitude="-88.072667451" split="1" ctrl_latitude_lo="-0.000012453" ctrl_longitude_lo="0.000157079" ctrl_latitude_hi="0.000017619" ctrl_longitude_hi="-0.000171558"/>
      <markings>
        <marking value="Solid Yellow"/>
        <marking value="Taxiway Centerline Lights (Green)"/>
      </markings>
    </object>
    <object class="WED_TextureBezierNode" id="1735" parent_id="1734">
      <children/>
      <hierarchy name="Node 1" locked="0" hidden="0"/>
      <point latitude="30.631433199" longitude="-88.072738042" split="0" ctrl_latitude_lo="0.0" ctrl_longitude_lo="0.0" ctrl_latitude_hi="0.0" ctrl_longitude_hi="0.0"/>
      <texture_node s="0.0050" t="0.2650" sc_lo="0.0" tc_lo="0.0" sc_hi="0.0" tc_hi="0.0"/>
    </object>
    <object class="WED_ExclusionZone" id="852" parent_id="853">
      <children>
        <child id="854"/>
        <child id="855"/>
      </children>
      <hierarchy name="Exclusion Zone" locked="0" hidden="0"/>
      <excluzions>
        <exclusion value="Objects"/>
        <exclusion value="Facades"/>
      </excluzions>
    </object>
    <object class="WED_AirportNode" id="3122" parent_id="3119">
      <children/>
      <hierarchy name="Node 3" locked="0" hidden="0"/>
      <point latitude="30.645528533" longitude="-88.076113773" split="0" ctrl_latitude_lo="0.0" ctrl_longitude_lo="0.0" ctrl_latitude_hi="0.0" ctrl_longitude_hi="0.0"/>
      <markings/>
    </object>
    <object class="WED_AirportNode" id="1411" parent_id="1410">
      <children/>
      <hierarchy name="Node 1" locked="0" hidden="0"/>
      <point latitude="30.628491770" longitude="-88.071971130" split="0" ctrl_latitude_lo="0.0" ctrl_longitude_lo="0.0" ctrl_latitude_hi="0.0" ctrl_longitude_hi="0.0"/>
      <markings>
        <marking value="Solid Yellow"/>
        <marking value="Taxiway Centerline Lights (Green)"/>
      </markings>
    </object>
    <object class="WED_ObjPlacement" id="6160" parent_id="6155">
      <children/>
      <hierarchy name="Excavator.obj" locked="0" hidden="0"/>
      <point latitude="30.636671007" longitude="-88.075750757" heading="-112.06"/>
      <obj_placement custom_msl="0" msl="0.0" resource="pm_library/Excavator.obj" show_level="1 Default"/>
    </object>
    <object class="WED_ObjPlacement" id="2762" parent_id="2759">
      <children/>
      <hierarchy name="Parking_Space_10.obj" locked="0" hidden="0"/>
      <point latitude="30.645467045" longitude="-88.075798871" heading="197.41"/>
      <obj_placement custom_msl="0" msl="0.0" resource="MisterX_Library/Airport/Ground_Markings/Parking_Spaces/Parking_Space_10.obj" show_level="1 Default"/>
    </object>
    <object class="WED_Taxiway" id="40" parent_id="15">
      <children>
        <child id="41"/>
      </children>
      <hierarchy name="A" locked="0" hidden="0"/>
      <taxiway surface="Asphalt" roughness="0.25" heading="140.00"/>
    </object>
    <object class="WED_Ring" id="3419" parent_id="3420">
      <children>
        <child id="3421"/>
        <child id="3422"/>
        <child id="3423"/>
        <child id="3424"/>
      </children>
      <hierarchy name="Polygon 3 Outer Ring" locked="0" hidden="0"/>
    </object>
    <object class="WED_AirportChain" id="41" parent_id="40">
      <children>
        <child id="42"/>
        <child id="43"/>
        <child id="44"/>
        <child id="45"/>
        <child id="974"/>
        <child id="976"/>
        <child id="975"/>
        <child id="46"/>
        <child id="47"/>
        <child id="973"/>
        <child id="1509"/>
        <child id="972"/>
        <child id="1508"/>
        <child id="971"/>
        <child id="48"/>
        <child id="51"/>
        <child id="2062"/>
        <child id="2070"/>
        <child id="2069"/>
        <child id="2065"/>
        <child id="2064"/>
        <child id="2063"/>
        <child id="2066"/>
        <child id="2067"/>
        <child id="2068"/>
        <child id="2061"/>
        <child id="52"/>
        <child id="53"/>
      </children>
      <hierarchy name="unnamed entity" locked="0" hidden="0"/>
      <airport_chain closed="1"/>
    </object>
    <object class="WED_ExclusionZone" id="856" parent_id="853">
      <children>
        <child id="857"/>
        <child id="858"/>
      </children>
      <hierarchy name="Exclusion Zone" locked="0" hidden="0"/>
      <excluzions>
        <exclusion value="Objects"/>
        <exclusion value="Facades"/>
        <exclusion value="Forests"/>
      </excluzions>
    </object>
    <object class="WED_TextureBezierNode" id="3787" parent_id="3784">
      <children/>
      <hierarchy name="Node 3" locked="0" hidden="0"/>
      <point latitude="30.636835776" longitude="-88.079327515" split="0" ctrl_latitude_lo="0.0" ctrl_longitude_lo="0.0" ctrl_latitude_hi="0.0" ctrl_longitude_hi="0.0"/>
      <texture_node s="1.0000" t="1.0000" sc_lo="0.0" tc_lo="0.0" sc_hi="0.0" tc_hi="0.0"/>
    </object>
    <object class="WED_AirportNode" id="42" parent_id="41">
      <children/>
      <hierarchy name="unnamed entity" locked="0" hidden="0"/>
      <point latitude="30.621684250" longitude="-88.065668650" split="0" ctrl_latitude_lo="0.0" ctrl_longitude_lo="0.0" ctrl_latitude_hi="0.0" ctrl_longitude_hi="0.0"/>
      <markings>
        <marking value="Double Solid Yellow"/>
        <marking value="Taxiway Edge Lights (Blue)"/>
      </markings>
    </object>
    <object class="WED_AirportNode" id="43" parent_id="41">
      <children/>
      <hierarchy name="unnamed entity" locked="0" hidden="0"/>
      <point latitude="30.621814830" longitude="-88.065505950" split="0" ctrl_latitude_lo="-0.000028320" ctrl_longitude_lo="-0.000114230" ctrl_latitude_hi="0.000028320" ctrl_longitude_hi="0.000114230"/>
      <markings>
        <marking value="Double Solid Yellow"/>
        <marking value="Taxiway Edge Lights (Blue)"/>
      </markings>
    </object>
    <object class="WED_DrapedOrthophoto" id="1882" parent_id="1881">
      <children>
        <child id="1883"/>
      </children>
      <hierarchy name="Backgrounds_Black_Y.pol" locked="0" hidden="0"/>
      <draped_orthophoto heading="-0.2" resource="MisterX_Library/Airport/Ground_Markings/Painted_Signs/Backgrounds_Black_Y.pol" tex_top="0.6300" tex_bottom="0.2650" tex_left="0.0050" tex_right="0.3700"/>
    </object>
    <object class="WED_AirportNode" id="44" parent_id="41">
      <children/>
      <hierarchy name="unnamed entity" locked="0" hidden="0"/>
      <point latitude="30.621764170" longitude="-88.065285570" split="0" ctrl_latitude_lo="0.0" ctrl_longitude_lo="0.0" ctrl_latitude_hi="0.0" ctrl_longitude_hi="0.0"/>
      <markings>
        <marking value="Double Solid Yellow"/>
        <marking value="Taxiway Edge Lights (Blue)"/>
      </markings>
    </object>
    <object class="WED_TextureBezierNode" id="1754" parent_id="1753">
      <children/>
      <hierarchy name="Node 1" locked="0" hidden="0"/>
      <point latitude="30.631354332" longitude="-88.072733086" split="0" ctrl_latitude_lo="0.0" ctrl_longitude_lo="0.0" ctrl_latitude_hi="0.0" ctrl_longitude_hi="0.0"/>
      <texture_node s="0.0050" t="0.2650" sc_lo="0.0" tc_lo="0.0" sc_hi="0.0" tc_hi="0.0"/>
    </object>
    <object class="WED_AirportNode" id="3128" parent_id="3124">
      <children/>
      <hierarchy name="Node 4" locked="0" hidden="0"/>
      <point latitude="30.645629648" longitude="-88.076088929" split="0" ctrl_latitude_lo="0.0" ctrl_longitude_lo="0.0" ctrl_latitude_hi="0.0" ctrl_longitude_hi="0.0"/>
      <markings/>
    </object>
    <object class="WED_AirportNode" id="45" parent_id="41">
      <children/>
      <hierarchy name="unnamed entity" locked="0" hidden="0"/>
      <point latitude="30.621649400" longitude="-88.065169350" split="0" ctrl_latitude_lo="0.0" ctrl_longitude_lo="0.0" ctrl_latitude_hi="0.0" ctrl_longitude_hi="0.0"/>
      <markings>
        <marking value="Double Solid Yellow"/>
        <marking value="Taxiway Edge Lights (Blue)"/>
      </markings>
    </object>
    <object class="WED_SimpleBoundaryNode" id="860" parent_id="859">
      <children/>
      <hierarchy name="e1" locked="0" hidden="0"/>
      <point latitude="30.624683000" longitude="-88.084160000"/>
    </object>
    <object class="WED_TextureBezierNode" id="1743" parent_id="1740">
      <children/>
      <hierarchy name="Node 3" locked="0" hidden="0"/>
      <point latitude="30.631428211" longitude="-88.072692405" split="0" ctrl_latitude_lo="0.0" ctrl_longitude_lo="0.0" ctrl_latitude_hi="0.0" ctrl_longitude_hi="0.0"/>
      <texture_node s="0.3750" t="0.4000" sc_lo="0.0" tc_lo="0.0" sc_hi="0.0" tc_hi="0.0"/>
    </object>
    <object class="WED_AirportNode" id="46" parent_id="41">
      <children/>
      <hierarchy name="unnamed entity" locked="0" hidden="0"/>
      <point latitude="30.613694358" longitude="-88.059814637" split="0" ctrl_latitude_lo="0.0" ctrl_longitude_lo="0.0" ctrl_latitude_hi="0.0" ctrl_longitude_hi="0.0"/>
      <markings/>
    </object>
    <object class="WED_TextureBezierNode" id="1736" parent_id="1734">
      <children/>
      <hierarchy name="Node 2" locked="0" hidden="0"/>
      <point latitude="30.631401702" longitude="-88.072726944" split="0" ctrl_latitude_lo="0.0" ctrl_longitude_lo="0.0" ctrl_latitude_hi="0.0" ctrl_longitude_hi="0.0"/>
      <texture_node s="0.3700" t="0.2650" sc_lo="0.0" tc_lo="0.0" sc_hi="0.0" tc_hi="0.0"/>
    </object>
    <object class="WED_AirportNode" id="47" parent_id="41">
      <children/>
      <hierarchy name="unnamed entity" locked="0" hidden="0"/>
      <point latitude="30.613476673" longitude="-88.059583208" split="0" ctrl_latitude_lo="0.0" ctrl_longitude_lo="0.0" ctrl_latitude_hi="0.0" ctrl_longitude_hi="0.0"/>
      <markings>
        <marking value="Double Solid Yellow"/>
        <marking value="Taxiway Edge Lights (Blue)"/>
      </markings>
    </object>
    <object class="WED_PolygonPlacement" id="2072" parent_id="12">
      <children>
        <child id="2071"/>
      </children>
      <hierarchy name="Concrete_1.pol" locked="0" hidden="0"/>
      <polygon_placement heading="45.0" resource="MisterX_Library/Ground_Textures/Concrete_1.pol"/>
    </object>
    <object class="WED_AirportChain" id="1419" parent_id="15">
      <children>
        <child id="1420"/>
        <child id="1423"/>
        <child id="1421"/>
      </children>
      <hierarchy name="A" locked="0" hidden="0"/>
      <airport_chain closed="0"/>
    </object>
    <object class="WED_AirportNode" id="48" parent_id="41">
      <children/>
      <hierarchy name="unnamed entity" locked="0" hidden="0"/>
      <point latitude="30.614786715" longitude="-88.057936686" split="1" ctrl_latitude_lo="-0.000183450" ctrl_longitude_lo="0.000164190" ctrl_latitude_hi="0.000071893" ctrl_longitude_hi="-0.000057611"/>
      <markings>
        <marking value="Double Solid Yellow"/>
        <marking value="Taxiway Edge Lights (Blue)"/>
      </markings>
    </object>
    <object class="WED_AirportNode" id="928" parent_id="97">
      <children/>
      <hierarchy name="unnamed entity" locked="0" hidden="0"/>
      <point latitude="30.632096369" longitude="-88.076772791" split="1" ctrl_latitude_lo="0.000153503" ctrl_longitude_lo="-0.000203287" ctrl_latitude_hi="-0.000042838" ctrl_longitude_hi="0.000045636"/>
      <markings>
        <marking value="Double Solid Yellow"/>
        <marking value="Taxiway Edge Lights (Blue)"/>
      </markings>
    </object>
    <object class="WED_ObjPlacement" id="2781" parent_id="2759">
      <children/>
      <hierarchy name="Parking_Space_2.obj" locked="0" hidden="0"/>
      <point latitude="30.646196519" longitude="-88.075476186" heading="17.58"/>
      <obj_placement custom_msl="0" msl="0.0" resource="MisterX_Library/Airport/Ground_Markings/Parking_Spaces/Parking_Space_2.obj" show_level="1 Default"/>
    </object>
    <object class="WED_AirportNode" id="51" parent_id="41">
      <children/>
      <hierarchy name="unnamed entity" locked="0" hidden="0"/>
      <point latitude="30.615477320" longitude="-88.058593370" split="0" ctrl_latitude_lo="0.0" ctrl_longitude_lo="0.0" ctrl_latitude_hi="0.0" ctrl_longitude_hi="0.0"/>
      <markings>
        <marking value="Double Solid Yellow"/>
        <marking value="Taxiway Edge Lights (Blue)"/>
      </markings>
    </object>
    <object class="WED_ObjPlacement" id="2774" parent_id="2759">
      <children/>
      <hierarchy name="Parking_Space_2.obj" locked="0" hidden="0"/>
      <point latitude="30.646026876" longitude="-88.075537605" heading="17.58"/>
      <obj_placement custom_msl="0" msl="0.0" resource="MisterX_Library/Airport/Ground_Markings/Parking_Spaces/Parking_Space_2.obj" show_level="1 Default"/>
    </object>
    <object class="WED_AirportNode" id="52" parent_id="41">
      <children/>
      <hierarchy name="unnamed entity" locked="0" hidden="0"/>
      <point latitude="30.621785800" longitude="-88.064989660" split="0" ctrl_latitude_lo="0.0" ctrl_longitude_lo="0.0" ctrl_latitude_hi="0.0" ctrl_longitude_hi="0.0"/>
      <markings>
        <marking value="Double Solid Yellow"/>
        <marking value="Taxiway Edge Lights (Blue)"/>
      </markings>
    </object>
    <object class="WED_AirportNode" id="53" parent_id="41">
      <children/>
      <hierarchy name="unnamed entity" locked="0" hidden="0"/>
      <point latitude="30.622455100" longitude="-88.065667450" split="0" ctrl_latitude_lo="0.0" ctrl_longitude_lo="0.0" ctrl_latitude_hi="0.0" ctrl_longitude_hi="0.0"/>
      <markings/>
    </object>
    <object class="WED_Group" id="1751" parent_id="15">
      <children>
        <child id="1752"/>
        <child id="1764"/>
        <child id="1777"/>
      </children>
      <hierarchy name="Sign Apron 07 R" locked="0" hidden="0"/>
    </object>
    <object class="WED_AirportNode" id="3074" parent_id="3072">
      <children/>
      <hierarchy name="Node 2" locked="0" hidden="0"/>
      <point latitude="30.645829327" longitude="-88.075571836" split="0" ctrl_latitude_lo="0.0" ctrl_longitude_lo="0.0" ctrl_latitude_hi="0.0" ctrl_longitude_hi="0.0"/>
      <markings>
        <marking value="Solid White (Roadway)"/>
      </markings>
    </object>
    <object class="WED_AirportNode" id="936" parent_id="97">
      <children/>
      <hierarchy name="unnamed entity" locked="0" hidden="0"/>
      <point latitude="30.628641051" longitude="-88.071462111" split="1" ctrl_latitude_lo="-0.000426667" ctrl_longitude_lo="-0.000501810" ctrl_latitude_hi="0.000323856" ctrl_longitude_hi="0.000358436"/>
      <markings>
        <marking value="Double Solid Yellow"/>
        <marking value="Taxiway Edge Lights (Blue)"/>
      </markings>
    </object>
    <object class="WED_TextureBezierNode" id="3803" parent_id="3802">
      <children/>
      <hierarchy name="Node 1" locked="0" hidden="0"/>
      <point latitude="30.636582160" longitude="-88.079735042" split="0" ctrl_latitude_lo="0.0" ctrl_longitude_lo="0.0" ctrl_latitude_hi="0.0" ctrl_longitude_hi="0.0"/>
      <texture_node s="0.0" t="0.0" sc_lo="0.0" tc_lo="0.0" sc_hi="0.0" tc_hi="0.0"/>
    </object>
    <object class="WED_AirportNode" id="1056" parent_id="1054">
      <children/>
      <hierarchy name="Node 2" locked="0" hidden="0"/>
      <point latitude="30.630176003" longitude="-88.072845344" split="0" ctrl_latitude_lo="0.0" ctrl_longitude_lo="0.0" ctrl_latitude_hi="0.0" ctrl_longitude_hi="0.0"/>
      <markings>
        <marking value="Solid Yellow"/>
        <marking value="Taxiway Centerline Lights (Green)"/>
      </markings>
    </object>
    <object class="WED_SimpleBezierBoundaryNode" id="3080" parent_id="3078">
      <children/>
      <hierarchy name="Node 2" locked="0" hidden="0"/>
      <point latitude="30.645926225" longitude="-88.075930957" split="0" ctrl_latitude_lo="0.0" ctrl_longitude_lo="0.0" ctrl_latitude_hi="0.0" ctrl_longitude_hi="0.0"/>
    </object>
    <object class="WED_AirportNode" id="940" parent_id="97">
      <children/>
      <hierarchy name="unnamed entity" locked="0" hidden="0"/>
      <point latitude="30.628597477" longitude="-88.072175740" split="1" ctrl_latitude_lo="0.000596305" ctrl_longitude_lo="0.000776611" ctrl_latitude_hi="-0.000056546" ctrl_longitude_hi="-0.000250905"/>
      <markings>
        <marking value="Double Solid Yellow"/>
        <marking value="Taxiway Edge Lights (Blue)"/>
      </markings>
    </object>
    <object class="WED_ObjPlacement" id="2764" parent_id="2759">
      <children/>
      <hierarchy name="Parking_Space_10.obj" locked="0" hidden="0"/>
      <point latitude="30.645635442" longitude="-88.075741632" heading="197.41"/>
      <obj_placement custom_msl="0" msl="0.0" resource="MisterX_Library/Airport/Ground_Markings/Parking_Spaces/Parking_Space_10.obj" show_level="1 Default"/>
    </object>
    <object class="WED_TextureBezierNode" id="2397" parent_id="2393">
      <children/>
      <hierarchy name="Node 4" locked="0" hidden="0"/>
      <point latitude="30.622735565" longitude="-88.066934466" split="0" ctrl_latitude_lo="0.0" ctrl_longitude_lo="0.0" ctrl_latitude_hi="0.0" ctrl_longitude_hi="0.0"/>
      <texture_node s="0.0" t="1.0000" sc_lo="0.0" tc_lo="0.0" sc_hi="0.0" tc_hi="0.0"/>
    </object>
    <object class="WED_AirportChain" id="1058" parent_id="15">
      <children>
        <child id="1059"/>
        <child id="1061"/>
        <child id="1060"/>
      </children>
      <hierarchy name="10" locked="0" hidden="0"/>
      <airport_chain closed="0"/>
    </object>
    <object class="WED_AirportChain" id="1116" parent_id="15">
      <children>
        <child id="1117"/>
        <child id="1148"/>
        <child id="1118"/>
      </children>
      <hierarchy name="Linear Feature 29" locked="0" hidden="0"/>
      <airport_chain closed="0"/>
    </object>
    <object class="WED_AirportNode" id="463" parent_id="451">
      <children/>
      <hierarchy name="unnamed entity" locked="0" hidden="0"/>
      <point latitude="30.629905730" longitude="-88.069828280" split="0" ctrl_latitude_lo="0.0" ctrl_longitude_lo="0.0" ctrl_latitude_hi="0.0" ctrl_longitude_hi="0.0"/>
      <markings>
        <marking value="Double Solid Yellow"/>
        <marking value="Taxiway Edge Lights (Blue)"/>
      </markings>
    </object>
    <object class="WED_TextureBezierNode" id="1837" parent_id="1832">
      <children/>
      <hierarchy name="Node 4" locked="0" hidden="0"/>
      <point latitude="30.632158914" longitude="-88.072701049" split="0" ctrl_latitude_lo="0.0" ctrl_longitude_lo="0.0" ctrl_latitude_hi="0.0" ctrl_longitude_hi="0.0"/>
      <texture_node s="0.0" t="0.2000" sc_lo="0.0" tc_lo="0.0" sc_hi="0.0" tc_hi="0.0"/>
    </object>
    <object class="WED_AirportNode" id="1118" parent_id="1116">
      <children/>
      <hierarchy name="Node 2" locked="0" hidden="0"/>
      <point latitude="30.632634751" longitude="-88.070501724" split="0" ctrl_latitude_lo="0.0" ctrl_longitude_lo="0.0" ctrl_latitude_hi="0.0" ctrl_longitude_hi="0.0"/>
      <markings>
        <marking value="Solid Yellow"/>
        <marking value="Taxiway Centerline Lights (Green)"/>
      </markings>
    </object>
    <object class="WED_AirportNode" id="457" parent_id="451">
      <children/>
      <hierarchy name="unnamed entity" locked="0" hidden="0"/>
      <point latitude="30.629797700" longitude="-88.069796400" split="1" ctrl_latitude_lo="-0.000004880" ctrl_longitude_lo="-0.000042520" ctrl_latitude_hi="0.0" ctrl_longitude_hi="0.0"/>
      <markings>
        <marking value="Double Solid Yellow"/>
        <marking value="Taxiway Edge Lights (Blue)"/>
      </markings>
    </object>
    <object class="WED_TextureBezierNode" id="1527" parent_id="1525">
      <children/>
      <hierarchy name="Node 1" locked="0" hidden="0"/>
      <point latitude="30.630330645" longitude="-88.072751723" split="0" ctrl_latitude_lo="0.0" ctrl_longitude_lo="0.0" ctrl_latitude_hi="0.0" ctrl_longitude_hi="0.0"/>
      <texture_node s="0.0050" t="0.2650" sc_lo="0.0" tc_lo="0.0" sc_hi="0.0" tc_hi="0.0"/>
    </object>
    <object class="WED_AirportNode" id="2459" parent_id="2457">
      <children/>
      <hierarchy name="Node 1" locked="0" hidden="0"/>
      <point latitude="30.646508308" longitude="-88.075366176" split="0" ctrl_latitude_lo="0.0" ctrl_longitude_lo="0.0" ctrl_latitude_hi="0.0" ctrl_longitude_hi="0.0"/>
      <markings>
        <marking value="Solid White (Roadway)"/>
      </markings>
    </object>
    <object class="WED_AirportChain" id="1128" parent_id="15">
      <children>
        <child id="1129"/>
        <child id="1144"/>
        <child id="1130"/>
      </children>
      <hierarchy name="Linear Feature 33" locked="0" hidden="0"/>
      <airport_chain closed="0"/>
    </object>
    <object class="WED_AirportChain" id="3072" parent_id="3071">
      <children>
        <child id="3073"/>
        <child id="3074"/>
        <child id="3075"/>
        <child id="3076"/>
      </children>
      <hierarchy name="Taxiway 16 Outer Ring" locked="0" hidden="0"/>
      <airport_chain closed="1"/>
    </object>
    <object class="WED_AirportChain" id="451" parent_id="450">
      <children>
        <child id="452"/>
        <child id="453"/>
        <child id="454"/>
        <child id="455"/>
        <child id="456"/>
        <child id="457"/>
        <child id="458"/>
        <child id="459"/>
        <child id="460"/>
        <child id="461"/>
        <child id="462"/>
        <child id="463"/>
        <child id="464"/>
        <child id="465"/>
        <child id="466"/>
        <child id="467"/>
        <child id="471"/>
        <child id="472"/>
        <child id="473"/>
        <child id="474"/>
        <child id="475"/>
        <child id="476"/>
        <child id="480"/>
        <child id="481"/>
        <child id="482"/>
        <child id="485"/>
        <child id="486"/>
        <child id="488"/>
        <child id="489"/>
        <child id="490"/>
        <child id="491"/>
        <child id="1241"/>
        <child id="1240"/>
        <child id="1239"/>
        <child id="1238"/>
        <child id="492"/>
        <child id="493"/>
        <child id="494"/>
        <child id="495"/>
        <child id="496"/>
        <child id="497"/>
        <child id="498"/>
        <child id="499"/>
      </children>
      <hierarchy name="unnamed entity" locked="0" hidden="0"/>
      <airport_chain closed="1"/>
    </object>
    <object class="WED_AirportNode" id="1012" parent_id="1008">
      <children/>
      <hierarchy name="Node 1" locked="0" hidden="0"/>
      <point latitude="30.631808461" longitude="-88.078414596" split="1" ctrl_latitude_lo="0.000026798" ctrl_longitude_lo="0.000109221" ctrl_latitude_hi="-0.000048562" ctrl_longitude_hi="-0.000226043"/>
      <markings>
        <marking value="Solid Yellow"/>
        <marking value="Taxiway Centerline Lights (Green)"/>
      </markings>
    </object>
    <object class="WED_AirportNode" id="1521" parent_id="1520">
      <children/>
      <hierarchy name="Node 1" locked="0" hidden="0"/>
      <point latitude="30.622690056" longitude="-88.066872085" split="0" ctrl_latitude_lo="0.0" ctrl_longitude_lo="0.0" ctrl_latitude_hi="0.0" ctrl_longitude_hi="0.0"/>
      <markings>
        <marking value="Solid Yellow"/>
        <marking value="Taxiway Centerline Lights (Green)"/>
      </markings>
    </object>
    <object class="WED_AirportNode" id="1130" parent_id="1128">
      <children/>
      <hierarchy name="Node 2" locked="0" hidden="0"/>
      <point latitude="30.632633298" longitude="-88.069343925" split="0" ctrl_latitude_lo="0.0" ctrl_longitude_lo="0.0" ctrl_latitude_hi="0.0" ctrl_longitude_hi="0.0"/>
      <markings>
        <marking value="Solid Yellow"/>
        <marking value="Taxiway Centerline Lights (Green)"/>
      </markings>
    </object>
    <object class="WED_AirportNode" id="461" parent_id="451">
      <children/>
      <hierarchy name="unnamed entity" locked="0" hidden="0"/>
      <point latitude="30.629851270" longitude="-88.069416530" split="0" ctrl_latitude_lo="0.0" ctrl_longitude_lo="0.0" ctrl_latitude_hi="0.0" ctrl_longitude_hi="0.0"/>
      <markings>
        <marking value="Double Solid Yellow"/>
        <marking value="Taxiway Edge Lights (Blue)"/>
      </markings>
    </object>
    <object class="WED_AirportNode" id="3154" parent_id="3149">
      <children/>
      <hierarchy name="Node 5" locked="0" hidden="0"/>
      <point latitude="30.646298136" longitude="-88.075768407" split="1" ctrl_latitude_lo="-0.000007709" ctrl_longitude_lo="-0.000007680" ctrl_latitude_hi="0.000006326" ctrl_longitude_hi="0.000006818"/>
      <markings>
        <marking value="Solid White (Roadway)"/>
      </markings>
    </object>
    <object class="WED_RampPosition" id="1188" parent_id="2005">
      <children/>
      <hierarchy name="Ramp Start 27" locked="0" hidden="0"/>
      <point latitude="30.633101302" longitude="-88.068778438" heading="0.0"/>
      <ramp_start type="Gate" traffic="14" width="B" ramp_op_type="General Aviation" airlines=""/>
    </object>
    <object class="WED_AirportNode" id="471" parent_id="451">
      <children/>
      <hierarchy name="unnamed entity" locked="0" hidden="0"/>
      <point latitude="30.632768030" longitude="-88.067518686" split="0" ctrl_latitude_lo="0.0" ctrl_longitude_lo="0.0" ctrl_latitude_hi="0.0" ctrl_longitude_hi="0.0"/>
      <markings>
        <marking value="Double Solid Yellow"/>
        <marking value="Taxiway Edge Lights (Blue)"/>
      </markings>
    </object>
    <object class="WED_AirportNode" id="1016" parent_id="1013">
      <children/>
      <hierarchy name="Node 1" locked="0" hidden="0"/>
      <point latitude="30.632994491" longitude="-88.077317953" split="1" ctrl_latitude_lo="-0.000297486" ctrl_longitude_lo="0.000138292" ctrl_latitude_hi="0.000153701" ctrl_longitude_hi="-0.000156226"/>
      <markings>
        <marking value="Solid Yellow"/>
        <marking value="Taxiway Centerline Lights (Green)"/>
      </markings>
    </object>
    <object class="WED_ObjPlacement" id="1190" parent_id="9">
      <children/>
      <hierarchy name="Ramp_1_Med.obj" locked="0" hidden="0"/>
      <point latitude="30.630273475" longitude="-88.071975702" heading="90.38"/>
      <obj_placement custom_msl="0" msl="0.0" resource="MisterX_Library/Airport/Ramps/Ramp_1_Med.obj" show_level="1 Default"/>
    </object>
    <object class="WED_AirportNode" id="465" parent_id="451">
      <children/>
      <hierarchy name="unnamed entity" locked="0" hidden="0"/>
      <point latitude="30.630587306" longitude="-88.069754204" split="1" ctrl_latitude_lo="0.000000816" ctrl_longitude_lo="-0.000062096" ctrl_latitude_hi="0.0" ctrl_longitude_hi="0.0"/>
      <markings>
        <marking value="Double Solid Yellow"/>
        <marking value="Taxiway Edge Lights (Blue)"/>
      </markings>
    </object>
    <object class="WED_AirportNode" id="2871" parent_id="2845">
      <children/>
      <hierarchy name="Node 2" locked="0" hidden="0"/>
      <point latitude="30.646021087" longitude="-88.074902921" split="0" ctrl_latitude_lo="0.0" ctrl_longitude_lo="0.0" ctrl_latitude_hi="0.0" ctrl_longitude_hi="0.0"/>
      <markings>
        <marking value="Solid White (Roadway)"/>
      </markings>
    </object>
    <object class="WED_TextureBezierNode" id="1535" parent_id="1532">
      <children/>
      <hierarchy name="Node 3" locked="0" hidden="0"/>
      <point latitude="30.630216872" longitude="-88.072714930" split="0" ctrl_latitude_lo="0.0" ctrl_longitude_lo="0.0" ctrl_latitude_hi="0.0" ctrl_longitude_hi="0.0"/>
      <texture_node s="0.3700" t="0.6300" sc_lo="0.0" tc_lo="0.0" sc_hi="0.0" tc_hi="0.0"/>
    </object>
    <object class="WED_ObjPlacement" id="6627" parent_id="6448">
      <children/>
      <hierarchy name="jersey_barrier_red_single.obj" locked="0" hidden="0"/>
      <point latitude="30.637621144" longitude="-88.075871654" heading="415.65"/>
      <obj_placement custom_msl="0" msl="0.0" resource="handyobjects/gatesandfences/jersey_barrier_red_single.obj" show_level="1 Default"/>
    </object>
    <object class="WED_AirportNode" id="1136" parent_id="1134">
      <children/>
      <hierarchy name="Node 2" locked="0" hidden="0"/>
      <point latitude="30.632632535" longitude="-88.068728401" split="0" ctrl_latitude_lo="0.0" ctrl_longitude_lo="0.0" ctrl_latitude_hi="0.0" ctrl_longitude_hi="0.0"/>
      <markings>
        <marking value="Solid Yellow"/>
        <marking value="Taxiway Centerline Lights (Green)"/>
      </markings>
    </object>
    <object class="WED_AirportNode" id="459" parent_id="451">
      <children/>
      <hierarchy name="unnamed entity" locked="0" hidden="0"/>
      <point latitude="30.629705380" longitude="-88.069631970" split="0" ctrl_latitude_lo="0.0" ctrl_longitude_lo="0.0" ctrl_latitude_hi="0.0" ctrl_longitude_hi="0.0"/>
      <markings/>
    </object>
    <object class="WED_AirportNode" id="3160" parent_id="3155">
      <children/>
      <hierarchy name="Node 5" locked="0" hidden="0"/>
      <point latitude="30.646409024" longitude="-88.075588329" split="1" ctrl_latitude_lo="-0.000002753" ctrl_longitude_lo="-0.000011200" ctrl_latitude_hi="0.000005361" ctrl_longitude_hi="0.000016054"/>
      <markings>
        <marking value="Solid White (Roadway)"/>
      </markings>
    </object>
    <object class="WED_AirportNode" id="3881" parent_id="3878">
      <children/>
      <hierarchy name="Node 3" locked="0" hidden="0"/>
      <point latitude="30.637015208" longitude="-88.080125251" split="0" ctrl_latitude_lo="0.0" ctrl_longitude_lo="0.0" ctrl_latitude_hi="0.0" ctrl_longitude_hi="0.0"/>
      <markings>
        <marking value="Blue Line"/>
      </markings>
    </object>
    <object class="WED_AirportNode" id="1020" parent_id="1019">
      <children/>
      <hierarchy name="Node 1" locked="0" hidden="0"/>
      <point latitude="30.633739749" longitude="-88.077440964" split="0" ctrl_latitude_lo="0.0" ctrl_longitude_lo="0.0" ctrl_latitude_hi="0.0" ctrl_longitude_hi="0.0"/>
      <markings>
        <marking value="Solid Yellow"/>
        <marking value="Taxiway Centerline Lights (Green)"/>
      </markings>
    </object>
    <object class="WED_TextureBezierNode" id="1529" parent_id="1525">
      <children/>
      <hierarchy name="Node 3" locked="0" hidden="0"/>
      <point latitude="30.630310367" longitude="-88.072699081" split="0" ctrl_latitude_lo="0.0" ctrl_longitude_lo="0.0" ctrl_latitude_hi="0.0" ctrl_longitude_hi="0.0"/>
      <texture_node s="0.3700" t="0.6300" sc_lo="0.0" tc_lo="0.0" sc_hi="0.0" tc_hi="0.0"/>
    </object>
    <object class="WED_AirportSign" id="801" parent_id="12">
      <children/>
      <hierarchy name="{@B}9" locked="0" hidden="0"/>
      <point latitude="30.631168467" longitude="-88.078595177" heading="318.90"/>
      <airport_sign style="Default" size="Large Distance Remaining"/>
    </object>
    <object class="WED_ObjPlacement" id="1196" parent_id="9">
      <children/>
      <hierarchy name="Ramp_1_Med.obj" locked="0" hidden="0"/>
      <point latitude="30.631828909" longitude="-88.071221501" heading="180.00"/>
      <obj_placement custom_msl="0" msl="0.0" resource="MisterX_Library/Airport/Ramps/Ramp_1_Med.obj" show_level="1 Default"/>
    </object>
    <object class="WED_AirportNode" id="960" parent_id="97">
      <children/>
      <hierarchy name="unnamed entity" locked="0" hidden="0"/>
      <point latitude="30.632643983" longitude="-88.077746524" split="1" ctrl_latitude_lo="0.000188408" ctrl_longitude_lo="0.000195913" ctrl_latitude_hi="-0.000074372" ctrl_longitude_hi="-0.000066265"/>
      <markings>
        <marking value="Double Solid Yellow"/>
        <marking value="Taxiway Edge Lights (Blue)"/>
      </markings>
    </object>
    <object class="WED_ObjPlacement" id="1198" parent_id="9">
      <children/>
      <hierarchy name="Ramp_1_Med.obj" locked="0" hidden="0"/>
      <point latitude="30.631829809" longitude="-88.070353136" heading="180.00"/>
      <obj_placement custom_msl="0" msl="0.0" resource="MisterX_Library/Airport/Ramps/Ramp_1_Med.obj" show_level="1 Default"/>
    </object>
    <object class="WED_AirportNode" id="473" parent_id="451">
      <children/>
      <hierarchy name="unnamed entity" locked="0" hidden="0"/>
      <point latitude="30.641437764" longitude="-88.067551870" split="0" ctrl_latitude_lo="0.0" ctrl_longitude_lo="0.0" ctrl_latitude_hi="0.0" ctrl_longitude_hi="0.0"/>
      <markings>
        <marking value="Double Solid Yellow"/>
        <marking value="Taxiway Edge Lights (Blue)"/>
      </markings>
    </object>
    <object class="WED_AirportNode" id="1144" parent_id="1128">
      <children/>
      <hierarchy name="Node 1" locked="0" hidden="0"/>
      <point latitude="30.632835652" longitude="-88.069500121" split="1" ctrl_latitude_lo="0.000073166" ctrl_longitude_lo="-0.000005002" ctrl_latitude_hi="-0.000200866" ctrl_longitude_hi="0.000022280"/>
      <markings>
        <marking value="Solid Yellow"/>
        <marking value="Taxiway Centerline Lights (Green)"/>
      </markings>
    </object>
    <object class="WED_AirportNode" id="3088" parent_id="3084">
      <children/>
      <hierarchy name="Node 4" locked="0" hidden="0"/>
      <point latitude="30.646077287" longitude="-88.075881511" split="0" ctrl_latitude_lo="0.0" ctrl_longitude_lo="0.0" ctrl_latitude_hi="0.0" ctrl_longitude_hi="0.0"/>
      <markings>
        <marking value="Solid White (Roadway)"/>
      </markings>
    </object>
    <object class="WED_Group" id="4483" parent_id="4036">
      <children>
        <child id="3918"/>
        <child id="3915"/>
        <child id="3912"/>
        <child id="3909"/>
        <child id="3906"/>
        <child id="3894"/>
      </children>
      <hierarchy name="Hash 1" locked="0" hidden="0"/>
    </object>
    <object class="WED_AirportNode" id="467" parent_id="451">
      <children/>
      <hierarchy name="unnamed entity" locked="0" hidden="0"/>
      <point latitude="30.630865420" longitude="-88.067561243" split="1" ctrl_latitude_lo="-0.000232140" ctrl_longitude_lo="0.000005660" ctrl_latitude_hi="0.0" ctrl_longitude_hi="0.0"/>
      <markings>
        <marking value="Double Solid Yellow"/>
        <marking value="Taxiway Edge Lights (Blue)"/>
      </markings>
    </object>
    <object class="WED_AirportNode" id="964" parent_id="97">
      <children/>
      <hierarchy name="unnamed entity" locked="0" hidden="0"/>
      <point latitude="30.634112013" longitude="-88.078521735" split="1" ctrl_latitude_lo="0.000011622" ctrl_longitude_lo="0.000258690" ctrl_latitude_hi="-0.000024178" ctrl_longitude_hi="-0.000273446"/>
      <markings>
        <marking value="Double Solid Yellow"/>
        <marking value="Taxiway Edge Lights (Blue)"/>
      </markings>
    </object>
    <object class="WED_AirportNode" id="1326" parent_id="1324">
      <children/>
      <hierarchy name="Node 2" locked="0" hidden="0"/>
      <point latitude="30.633006912" longitude="-88.068778980" split="0" ctrl_latitude_lo="0.0" ctrl_longitude_lo="0.0" ctrl_latitude_hi="0.0" ctrl_longitude_hi="0.0"/>
      <markings>
        <marking value="Solid Yellow"/>
        <marking value="Taxiway Centerline Lights (Green)"/>
      </markings>
    </object>
    <object class="WED_AirportNode" id="968" parent_id="97">
      <children/>
      <hierarchy name="unnamed entity" locked="0" hidden="0"/>
      <point latitude="30.632749862" longitude="-88.079284340" split="0" ctrl_latitude_lo="0.0" ctrl_longitude_lo="0.0" ctrl_latitude_hi="0.0" ctrl_longitude_hi="0.0"/>
      <markings>
        <marking value="Double Solid Yellow"/>
        <marking value="Taxiway Edge Lights (Blue)"/>
      </markings>
    </object>
    <object class="WED_AirportSign" id="813" parent_id="12">
      <children/>
      <hierarchy name="{@Y,^l}A" locked="0" hidden="0"/>
      <point latitude="30.614046110" longitude="-88.060089330" heading="318.91"/>
      <airport_sign style="Default" size="Medium Taxiway"/>
    </object>
    <object class="WED_AirportNode" id="1088" parent_id="1087">
      <children/>
      <hierarchy name="Node 1" locked="0" hidden="0"/>
      <point latitude="30.631990579" longitude="-88.072447360" split="0" ctrl_latitude_lo="0.0" ctrl_longitude_lo="0.0" ctrl_latitude_hi="0.0" ctrl_longitude_hi="0.0"/>
      <markings>
        <marking value="Solid Yellow"/>
        <marking value="Taxiway Centerline Lights (Green)"/>
      </markings>
    </object>
    <object class="WED_AirportNode" id="475" parent_id="451">
      <children/>
      <hierarchy name="unnamed entity" locked="0" hidden="0"/>
      <point latitude="30.639413765" longitude="-88.067779954" split="0" ctrl_latitude_lo="0.0" ctrl_longitude_lo="0.0" ctrl_latitude_hi="0.0" ctrl_longitude_hi="0.0"/>
      <markings>
        <marking value="Double Solid Yellow"/>
        <marking value="Taxiway Edge Lights (Blue)"/>
      </markings>
    </object>
    <object class="WED_AirportNode" id="3240" parent_id="3236">
      <children/>
      <hierarchy name="Node 4" locked="0" hidden="0"/>
      <point latitude="30.646012180" longitude="-88.075373025" split="1" ctrl_latitude_lo="-0.000008321" ctrl_longitude_lo="-0.000003348" ctrl_latitude_hi="0.000014721" ctrl_longitude_hi="0.000004836"/>
      <markings>
        <marking value="Solid White (Roadway)"/>
      </markings>
    </object>
    <object class="WED_AirportNode" id="3897" parent_id="3894">
      <children/>
      <hierarchy name="Node 3" locked="0" hidden="0"/>
      <point latitude="30.636934564" longitude="-88.080154487" split="0" ctrl_latitude_lo="0.0" ctrl_longitude_lo="0.0" ctrl_latitude_hi="0.0" ctrl_longitude_hi="0.0"/>
      <markings>
        <marking value="Blue Line"/>
      </markings>
    </object>
    <object class="WED_AirportNode" id="972" parent_id="41">
      <children/>
      <hierarchy name="unnamed entity" locked="0" hidden="0"/>
      <point latitude="30.613471037" longitude="-88.058750255" split="1" ctrl_latitude_lo="0.0" ctrl_longitude_lo="0.0" ctrl_latitude_hi="0.0" ctrl_longitude_hi="0.0"/>
      <markings>
        <marking value="Taxiway Edge Lights (Blue)"/>
      </markings>
    </object>
    <object class="WED_ObjPlacement" id="3362" parent_id="3363">
      <children/>
      <hierarchy name="Row_of_Cars_6_Single.agp" locked="0" hidden="0"/>
      <point latitude="30.645430268" longitude="-88.075545152" heading="-253.14"/>
      <obj_placement custom_msl="0" msl="0.0" resource="MisterX_Library/Vehicles/Parking/Parked_Cars/Row_of_Cars_6_Single.agp" show_level="1 Default"/>
    </object>
    <object class="WED_AirportChain" id="1324" parent_id="15">
      <children>
        <child id="1325"/>
        <child id="1326"/>
      </children>
      <hierarchy name="Linear Feature 45" locked="0" hidden="0"/>
      <airport_chain closed="0"/>
    </object>
    <object class="WED_Taxiway" id="96" parent_id="15">
      <children>
        <child id="97"/>
      </children>
      <hierarchy name="A" locked="0" hidden="0"/>
      <taxiway surface="Asphalt" roughness="0.25" heading="140.00"/>
    </object>
    <object class="WED_AirportNode" id="1148" parent_id="1116">
      <children/>
      <hierarchy name="Node 1" locked="0" hidden="0"/>
      <point latitude="30.632785417" longitude="-88.070324163" split="1" ctrl_latitude_lo="0.000091920" ctrl_longitude_lo="0.000031908" ctrl_latitude_hi="-0.000157609" ctrl_longitude_hi="-0.000086410"/>
      <markings>
        <marking value="Solid Yellow"/>
        <marking value="Taxiway Centerline Lights (Green)"/>
      </markings>
    </object>
    <object class="WED_AirportNode" id="495" parent_id="451">
      <children/>
      <hierarchy name="unnamed entity" locked="0" hidden="0"/>
      <point latitude="30.630585594" longitude="-88.070119778" split="1" ctrl_latitude_lo="0.000000352" ctrl_longitude_lo="-0.000095235" ctrl_latitude_hi="0.0" ctrl_longitude_hi="0.0"/>
      <markings>
        <marking value="Double Solid Yellow"/>
        <marking value="Taxiway Edge Lights (Blue)"/>
      </markings>
    </object>
    <object class="WED_AirportChain" id="97" parent_id="96">
      <children>
        <child id="98"/>
        <child id="99"/>
        <child id="100"/>
        <child id="915"/>
        <child id="101"/>
        <child id="102"/>
        <child id="916"/>
        <child id="103"/>
        <child id="104"/>
        <child id="105"/>
        <child id="106"/>
        <child id="107"/>
        <child id="925"/>
        <child id="927"/>
        <child id="935"/>
        <child id="936"/>
        <child id="937"/>
        <child id="938"/>
        <child id="939"/>
        <child id="940"/>
        <child id="930"/>
        <child id="941"/>
        <child id="943"/>
        <child id="942"/>
        <child id="944"/>
        <child id="945"/>
        <child id="947"/>
        <child id="929"/>
        <child id="948"/>
        <child id="955"/>
        <child id="949"/>
        <child id="952"/>
        <child id="969"/>
        <child id="964"/>
        <child id="966"/>
        <child id="1164"/>
        <child id="967"/>
        <child id="968"/>
        <child id="965"/>
        <child id="963"/>
        <child id="962"/>
        <child id="961"/>
        <child id="960"/>
        <child id="959"/>
        <child id="958"/>
        <child id="957"/>
        <child id="956"/>
        <child id="928"/>
        <child id="918"/>
        <child id="924"/>
        <child id="923"/>
        <child id="922"/>
        <child id="921"/>
        <child id="920"/>
        <child id="919"/>
        <child id="917"/>
      </children>
      <hierarchy name="unnamed entity" locked="0" hidden="0"/>
      <airport_chain closed="1"/>
    </object>
    <object class="WED_AirportNode" id="98" parent_id="97">
      <children/>
      <hierarchy name="unnamed entity" locked="0" hidden="0"/>
      <point latitude="30.625868507" longitude="-88.070621330" split="0" ctrl_latitude_lo="0.0" ctrl_longitude_lo="0.0" ctrl_latitude_hi="0.0" ctrl_longitude_hi="0.0"/>
      <markings>
        <marking value="Double Solid Yellow"/>
        <marking value="Taxiway Edge Lights (Blue)"/>
      </markings>
    </object>
    <object class="WED_AirportNode" id="1150" parent_id="1110">
      <children/>
      <hierarchy name="Node 1" locked="0" hidden="0"/>
      <point latitude="30.632795437" longitude="-88.070781830" split="1" ctrl_latitude_lo="0.000081296" ctrl_longitude_lo="0.000015284" ctrl_latitude_hi="-0.000125531" ctrl_longitude_hi="-0.000023620"/>
      <markings>
        <marking value="Solid Yellow"/>
        <marking value="Taxiway Centerline Lights (Green)"/>
      </markings>
    </object>
    <object class="WED_AirportNode" id="489" parent_id="451">
      <children/>
      <hierarchy name="unnamed entity" locked="0" hidden="0"/>
      <point latitude="30.630528460" longitude="-88.070299630" split="0" ctrl_latitude_lo="0.0" ctrl_longitude_lo="0.0" ctrl_latitude_hi="0.0" ctrl_longitude_hi="0.0"/>
      <markings>
        <marking value="Double Solid Yellow"/>
        <marking value="Taxiway Edge Lights (Blue)"/>
      </markings>
    </object>
    <object class="WED_AirportNode" id="99" parent_id="97">
      <children/>
      <hierarchy name="unnamed entity" locked="0" hidden="0"/>
      <point latitude="30.624852218" longitude="-88.069385428" split="0" ctrl_latitude_lo="0.0" ctrl_longitude_lo="0.0" ctrl_latitude_hi="0.0" ctrl_longitude_hi="0.0"/>
      <markings>
        <marking value="Double Solid Yellow"/>
        <marking value="Taxiway Edge Lights (Blue)"/>
      </markings>
    </object>
    <object class="WED_Ring" id="1938" parent_id="1939">
      <children>
        <child id="1940"/>
        <child id="1941"/>
        <child id="1942"/>
        <child id="1943"/>
      </children>
      <hierarchy name="Orthophoto 13 Outer Ring" locked="0" hidden="0"/>
    </object>
    <object class="WED_AirportNode" id="1431" parent_id="1424">
      <children/>
      <hierarchy name="Node 1" locked="0" hidden="0"/>
      <point latitude="30.628094276" longitude="-88.065961851" split="1" ctrl_latitude_lo="-0.000129737" ctrl_longitude_lo="-0.000096997" ctrl_latitude_hi="0.000080809" ctrl_longitude_hi="0.000053355"/>
      <markings>
        <marking value="Solid Yellow (Black)"/>
        <marking value="Taxiway Centerline Lights (Green)"/>
      </markings>
    </object>
    <object class="WED_AirportNode" id="100" parent_id="97">
      <children/>
      <hierarchy name="unnamed entity" locked="0" hidden="0"/>
      <point latitude="30.622257879" longitude="-88.066789478" split="0" ctrl_latitude_lo="0.0" ctrl_longitude_lo="0.0" ctrl_latitude_hi="0.0" ctrl_longitude_hi="0.0"/>
      <markings>
        <marking value="Double Solid Yellow"/>
        <marking value="Taxiway Edge Lights (Blue)"/>
      </markings>
    </object>
    <object class="WED_AirportNode" id="101" parent_id="97">
      <children/>
      <hierarchy name="unnamed entity" locked="0" hidden="0"/>
      <point latitude="30.621621809" longitude="-88.066145182" split="0" ctrl_latitude_lo="0.0" ctrl_longitude_lo="0.0" ctrl_latitude_hi="0.0" ctrl_longitude_hi="0.0"/>
      <markings/>
    </object>
    <object class="WED_AirportNode" id="916" parent_id="97">
      <children/>
      <hierarchy name="unnamed entity" locked="0" hidden="0"/>
      <point latitude="30.623038000" longitude="-88.066262137" split="1" ctrl_latitude_lo="-0.000000529" ctrl_longitude_lo="0.000087459" ctrl_latitude_hi="-0.000068344" ctrl_longitude_hi="-0.000009232"/>
      <markings>
        <marking value="Double Solid Yellow"/>
        <marking value="Taxiway Edge Lights (Blue)"/>
      </markings>
    </object>
    <object class="WED_AirportNode" id="1425" parent_id="1424">
      <children/>
      <hierarchy name="Node 1" locked="0" hidden="0"/>
      <point latitude="30.628042666" longitude="-88.066406094" split="0" ctrl_latitude_lo="0.0" ctrl_longitude_lo="0.0" ctrl_latitude_hi="0.0" ctrl_longitude_hi="0.0"/>
      <markings>
        <marking value="Solid Yellow (Black)"/>
        <marking value="Taxiway Centerline Lights (Green)"/>
      </markings>
    </object>
    <object class="WED_AirportNode" id="102" parent_id="97">
      <children/>
      <hierarchy name="unnamed entity" locked="0" hidden="0"/>
      <point latitude="30.623041242" longitude="-88.066141874" split="1" ctrl_latitude_lo="0.0" ctrl_longitude_lo="0.0" ctrl_latitude_hi="0.0" ctrl_longitude_hi="0.0"/>
      <markings>
        <marking value="Double Solid Yellow"/>
        <marking value="Taxiway Edge Lights (Blue)"/>
      </markings>
    </object>
    <object class="WED_TextureNode" id="2517" parent_id="2513">
      <children/>
      <hierarchy name="Corner 4" locked="0" hidden="0"/>
      <point latitude="30.619004798" longitude="-88.088378906"/>
      <texture_node s="0.0" t="1.0000"/>
    </object>
    <object class="WED_FacadePlacement" id="4907" parent_id="4136">
      <children>
        <child id="4906"/>
      </children>
      <hierarchy name="chainlink_fence.fac" locked="0" hidden="0"/>
      <facade_placement height="10" resource="handyobjects/gatesandfences/chainlink_fence.fac" pick_walls="1" show_level="1 Default"/>
    </object>
    <object class="WED_AirportNode" id="493" parent_id="451">
      <children/>
      <hierarchy name="unnamed entity" locked="0" hidden="0"/>
      <point latitude="30.630008190" longitude="-88.070220630" split="0" ctrl_latitude_lo="0.0" ctrl_longitude_lo="0.0" ctrl_latitude_hi="0.0" ctrl_longitude_hi="0.0"/>
      <markings>
        <marking value="Double Solid Yellow"/>
        <marking value="Taxiway Edge Lights (Blue)"/>
      </markings>
    </object>
    <object class="WED_AirportChain" id="3186" parent_id="2458">
      <children>
        <child id="3187"/>
        <child id="3188"/>
        <child id="3189"/>
        <child id="3190"/>
      </children>
      <hierarchy name="Hole 31" locked="0" hidden="0"/>
      <airport_chain closed="1"/>
    </object>
    <object class="WED_AirportNode" id="103" parent_id="97">
      <children/>
      <hierarchy name="unnamed entity" locked="0" hidden="0"/>
      <point latitude="30.622796369" longitude="-88.066367201" split="1" ctrl_latitude_lo="0.000016340" ctrl_longitude_lo="0.000058847" ctrl_latitude_hi="-0.000022987" ctrl_longitude_hi="-0.000042847"/>
      <markings>
        <marking value="Double Solid Yellow"/>
        <marking value="Taxiway Edge Lights (Blue)"/>
      </markings>
    </object>
    <object class="WED_AirportNode" id="3990" parent_id="3989">
      <children/>
      <hierarchy name="Node 1" locked="0" hidden="0"/>
      <point latitude="30.637005667" longitude="-88.080087351" split="0" ctrl_latitude_lo="0.0" ctrl_longitude_lo="0.0" ctrl_latitude_hi="0.0" ctrl_longitude_hi="0.0"/>
      <markings>
        <marking value="Blue Line"/>
      </markings>
    </object>
    <object class="WED_AirportNode" id="104" parent_id="97">
      <children/>
      <hierarchy name="unnamed entity" locked="0" hidden="0"/>
      <point latitude="30.622865125" longitude="-88.066557176" split="0" ctrl_latitude_lo="0.0" ctrl_longitude_lo="0.0" ctrl_latitude_hi="0.0" ctrl_longitude_hi="0.0"/>
      <markings>
        <marking value="Double Solid Yellow"/>
        <marking value="Taxiway Edge Lights (Blue)"/>
      </markings>
    </object>
    <object class="WED_ObjPlacement" id="3483" parent_id="3465">
      <children/>
      <hierarchy name="Parking_Space_4.obj" locked="0" hidden="0"/>
      <point latitude="30.641944157" longitude="-88.077631060" heading="108.16"/>
      <obj_placement custom_msl="0" msl="0.0" resource="MisterX_Library/Airport/Ground_Markings/Parking_Spaces/Parking_Space_4.obj" show_level="1 Default"/>
    </object>
    <object class="WED_AirportNode" id="1092" parent_id="1091">
      <children/>
      <hierarchy name="Node 1" locked="0" hidden="0"/>
      <point latitude="30.631990385" longitude="-88.072448562" split="0" ctrl_latitude_lo="0.0" ctrl_longitude_lo="0.0" ctrl_latitude_hi="0.0" ctrl_longitude_hi="0.0"/>
      <markings>
        <marking value="Solid Yellow"/>
        <marking value="Taxiway Centerline Lights (Green)"/>
      </markings>
    </object>
    <object class="WED_AirportNode" id="503" parent_id="501">
      <children/>
      <hierarchy name="unnamed entity" locked="0" hidden="0"/>
      <point latitude="30.629306410" longitude="-88.069608800" split="0" ctrl_latitude_lo="0.0" ctrl_longitude_lo="0.0" ctrl_latitude_hi="0.0" ctrl_longitude_hi="0.0"/>
      <markings>
        <marking value="Double Solid Yellow"/>
        <marking value="Taxiway Edge Lights (Blue)"/>
      </markings>
    </object>
    <object class="WED_AirportNode" id="105" parent_id="97">
      <children/>
      <hierarchy name="unnamed entity" locked="0" hidden="0"/>
      <point latitude="30.623300257" longitude="-88.067138800" split="0" ctrl_latitude_lo="0.0" ctrl_longitude_lo="0.0" ctrl_latitude_hi="0.0" ctrl_longitude_hi="0.0"/>
      <markings>
        <marking value="Double Solid Yellow"/>
        <marking value="Taxiway Edge Lights (Blue)"/>
      </markings>
    </object>
    <object class="WED_AirportNode" id="920" parent_id="97">
      <children/>
      <hierarchy name="unnamed entity" locked="0" hidden="0"/>
      <point latitude="30.625777101" longitude="-88.072062716" split="0" ctrl_latitude_lo="0.0" ctrl_longitude_lo="0.0" ctrl_latitude_hi="0.0" ctrl_longitude_hi="0.0"/>
      <markings/>
    </object>
    <object class="WED_AirportNode" id="106" parent_id="97">
      <children/>
      <hierarchy name="unnamed entity" locked="0" hidden="0"/>
      <point latitude="30.625031773" longitude="-88.068958800" split="0" ctrl_latitude_lo="0.0" ctrl_longitude_lo="0.0" ctrl_latitude_hi="0.0" ctrl_longitude_hi="0.0"/>
      <markings>
        <marking value="Double Solid Yellow"/>
        <marking value="Taxiway Edge Lights (Blue)"/>
      </markings>
    </object>
    <object class="WED_AirportNode" id="1094" parent_id="1091">
      <children/>
      <hierarchy name="Node 1" locked="0" hidden="0"/>
      <point latitude="30.632060755" longitude="-88.072727429" split="1" ctrl_latitude_lo="-0.000076381" ctrl_longitude_lo="0.000092627" ctrl_latitude_hi="0.000109590" ctrl_longitude_hi="-0.000133152"/>
      <markings>
        <marking value="Solid Yellow"/>
        <marking value="Taxiway Centerline Lights (Green)"/>
      </markings>
    </object>
    <object class="WED_AirportNode" id="497" parent_id="451">
      <children/>
      <hierarchy name="unnamed entity" locked="0" hidden="0"/>
      <point latitude="30.630551990" longitude="-88.069890090" split="0" ctrl_latitude_lo="0.0" ctrl_longitude_lo="0.0" ctrl_latitude_hi="0.0" ctrl_longitude_hi="0.0"/>
      <markings>
        <marking value="Double Solid Yellow"/>
        <marking value="Taxiway Edge Lights (Blue)"/>
      </markings>
    </object>
    <object class="WED_AirportNode" id="107" parent_id="97">
      <children/>
      <hierarchy name="unnamed entity" locked="0" hidden="0"/>
      <point latitude="30.626022765" longitude="-88.069934469" split="0" ctrl_latitude_lo="0.0" ctrl_longitude_lo="0.0" ctrl_latitude_hi="0.0" ctrl_longitude_hi="0.0"/>
      <markings>
        <marking value="Double Solid Yellow"/>
        <marking value="Taxiway Edge Lights (Blue)"/>
      </markings>
    </object>
    <object class="WED_Ring" id="1946" parent_id="1945">
      <children>
        <child id="1947"/>
        <child id="1948"/>
        <child id="1949"/>
        <child id="1950"/>
      </children>
      <hierarchy name="Orthophoto 11 Outer Ring" locked="0" hidden="0"/>
    </object>
    <object class="WED_TextureNode" id="2515" parent_id="2513">
      <children/>
      <hierarchy name="Corner 2" locked="0" hidden="0"/>
      <point latitude="30.600093874" longitude="-88.066406250"/>
      <texture_node s="1.0000" t="0.0"/>
    </object>
    <object class="WED_AirportNode" id="491" parent_id="451">
      <children/>
      <hierarchy name="unnamed entity" locked="0" hidden="0"/>
      <point latitude="30.630190274" longitude="-88.070751971" split="0" ctrl_latitude_lo="0.0" ctrl_longitude_lo="0.0" ctrl_latitude_hi="0.0" ctrl_longitude_hi="0.0"/>
      <markings>
        <marking value="Double Solid Yellow"/>
        <marking value="Taxiway Edge Lights (Blue)"/>
      </markings>
    </object>
    <object class="WED_AirportNode" id="3192" parent_id="3191">
      <children/>
      <hierarchy name="Node 1" locked="0" hidden="0"/>
      <point latitude="30.645868607" longitude="-88.075532952" split="1" ctrl_latitude_lo="0.000005058" ctrl_longitude_lo="0.000001861" ctrl_latitude_hi="-0.000002305" ctrl_longitude_hi="-0.000000744"/>
      <markings>
        <marking value="Solid White (Roadway)"/>
      </markings>
    </object>
    <object class="WED_AirportNode" id="924" parent_id="97">
      <children/>
      <hierarchy name="unnamed entity" locked="0" hidden="0"/>
      <point latitude="30.627058341" longitude="-88.071657395" split="1" ctrl_latitude_lo="0.000409384" ctrl_longitude_lo="-0.000390904" ctrl_latitude_hi="-0.000099167" ctrl_longitude_hi="0.000086825"/>
      <markings>
        <marking value="Double Solid Yellow"/>
        <marking value="Taxiway Edge Lights (Blue)"/>
      </markings>
    </object>
    <object class="WED_AirportNode" id="1042" parent_id="0">
      <children/>
      <hierarchy name="Node 2" locked="0" hidden="0"/>
      <point latitude="30.635606163" longitude="-88.075489040" split="0" ctrl_latitude_lo="0.0" ctrl_longitude_lo="0.0" ctrl_latitude_hi="0.0" ctrl_longitude_hi="0.0"/>
      <markings>
        <marking value="Solid Yellow"/>
        <marking value="Taxiway Centerline Lights (Green)"/>
      </markings>
    </object>
    <object class="WED_Ring" id="3114" parent_id="3113">
      <children>
        <child id="3115"/>
        <child id="3116"/>
        <child id="3117"/>
        <child id="3118"/>
      </children>
      <hierarchy name="Polygon 15 Outer Ring" locked="0" hidden="0"/>
    </object>
    <object class="WED_AirportChain" id="501" parent_id="500">
      <children>
        <child id="502"/>
        <child id="503"/>
        <child id="504"/>
        <child id="505"/>
        <child id="506"/>
        <child id="507"/>
        <child id="508"/>
        <child id="509"/>
        <child id="510"/>
      </children>
      <hierarchy name="unnamed entity" locked="0" hidden="0"/>
      <airport_chain closed="1"/>
    </object>
    <object class="WED_AirportNode" id="1100" parent_id="1098">
      <children/>
      <hierarchy name="Node 2" locked="0" hidden="0"/>
      <point latitude="30.632633881" longitude="-88.070788791" split="0" ctrl_latitude_lo="0.0" ctrl_longitude_lo="0.0" ctrl_latitude_hi="0.0" ctrl_longitude_hi="0.0"/>
      <markings>
        <marking value="Solid Yellow"/>
        <marking value="Taxiway Centerline Lights (Green)"/>
      </markings>
    </object>
    <object class="WED_Taxiway" id="511" parent_id="15">
      <children>
        <child id="512"/>
      </children>
      <hierarchy name="Road" locked="0" hidden="0"/>
      <taxiway surface="Concrete" roughness="0.25" heading="0.0"/>
    </object>
    <object class="WED_AirportChain" id="992" parent_id="15">
      <children>
        <child id="993"/>
        <child id="996"/>
        <child id="995"/>
        <child id="997"/>
        <child id="999"/>
        <child id="994"/>
      </children>
      <hierarchy name="L" locked="0" hidden="0"/>
      <airport_chain closed="0"/>
    </object>
    <object class="WED_AirportNode" id="1102" parent_id="1101">
      <children/>
      <hierarchy name="Node 1" locked="0" hidden="0"/>
      <point latitude="30.632214620" longitude="-88.070352969" split="0" ctrl_latitude_lo="0.0" ctrl_longitude_lo="0.0" ctrl_latitude_hi="0.0" ctrl_longitude_hi="0.0"/>
      <markings>
        <marking value="Solid Yellow"/>
        <marking value="Taxiway Centerline Lights (Green)"/>
      </markings>
    </object>
    <object class="WED_AirportNode" id="505" parent_id="501">
      <children/>
      <hierarchy name="unnamed entity" locked="0" hidden="0"/>
      <point latitude="30.628882460" longitude="-88.069581380" split="1" ctrl_latitude_lo="0.0" ctrl_longitude_lo="0.0" ctrl_latitude_hi="-0.000097130" ctrl_longitude_hi="-0.000015970"/>
      <markings>
        <marking value="Double Solid Yellow"/>
        <marking value="Taxiway Edge Lights (Blue)"/>
      </markings>
    </object>
    <object class="WED_AirportNode" id="1511" parent_id="1510">
      <children/>
      <hierarchy name="Node 1" locked="0" hidden="0"/>
      <point latitude="30.613476673" longitude="-88.059583208" split="0" ctrl_latitude_lo="0.0" ctrl_longitude_lo="0.0" ctrl_latitude_hi="0.0" ctrl_longitude_hi="0.0"/>
      <markings>
        <marking value="Road Edge Dash (Black)"/>
      </markings>
    </object>
    <object class="WED_AirportNode" id="3120" parent_id="3119">
      <children/>
      <hierarchy name="Node 1" locked="0" hidden="0"/>
      <point latitude="30.645617317" longitude="-88.076043064" split="0" ctrl_latitude_lo="0.0" ctrl_longitude_lo="0.0" ctrl_latitude_hi="0.0" ctrl_longitude_hi="0.0"/>
      <markings/>
    </object>
    <object class="WED_ObjPlacement" id="4515" parent_id="4505">
      <children/>
      <hierarchy name="light_palloluce_metal.obj" locked="0" hidden="0"/>
      <point latitude="30.635993102" longitude="-88.079817872" heading="38.92"/>
      <obj_placement custom_msl="0" msl="0.0" resource="CDB-Library/Airport/light/light_palloluce_metal.obj" show_level="1 Default"/>
    </object>
    <object class="WED_ObjPlacement" id="5842" parent_id="5838">
      <children/>
      <hierarchy name="objects_apron_light_pole3.obj" locked="0" hidden="0"/>
      <point latitude="30.641090564" longitude="-88.076344805" heading="188.11"/>
      <obj_placement custom_msl="0" msl="0.0" resource="CDB-Library/Airport/light/objects_apron_light_pole3.obj" show_level="1 Default"/>
    </object>
    <object class="WED_AirportNode" id="499" parent_id="451">
      <children/>
      <hierarchy name="unnamed entity" locked="0" hidden="0"/>
      <point latitude="30.629450440" longitude="-88.069708590" split="1" ctrl_latitude_lo="0.000008540" ctrl_longitude_lo="-0.000192770" ctrl_latitude_hi="-0.000002440" ctrl_longitude_hi="0.000068030"/>
      <markings>
        <marking value="Double Solid Yellow"/>
        <marking value="Taxiway Edge Lights (Blue)"/>
      </markings>
    </object>
    <object class="WED_AirportNode" id="996" parent_id="992">
      <children/>
      <hierarchy name="Node 1" locked="0" hidden="0"/>
      <point latitude="30.632708326" longitude="-88.074513053" split="1" ctrl_latitude_lo="-0.000000562" ctrl_longitude_lo="0.000560330" ctrl_latitude_hi="0.000056812" ctrl_longitude_hi="-0.000619089"/>
      <markings>
        <marking value="Solid Yellow"/>
        <marking value="Taxiway Centerline Lights (Green)"/>
      </markings>
    </object>
    <object class="WED_AirportNode" id="1505" parent_id="1504">
      <children/>
      <hierarchy name="Node 1" locked="0" hidden="0"/>
      <point latitude="30.613643010" longitude="-88.059155358" split="0" ctrl_latitude_lo="0.0" ctrl_longitude_lo="0.0" ctrl_latitude_hi="0.0" ctrl_longitude_hi="0.0"/>
      <markings>
        <marking value="ILS Hold (Black)"/>
      </markings>
    </object>
    <object class="WED_AirportNode" id="509" parent_id="501">
      <children/>
      <hierarchy name="unnamed entity" locked="0" hidden="0"/>
      <point latitude="30.629263480" longitude="-88.069506880" split="1" ctrl_latitude_lo="0.0" ctrl_longitude_lo="0.0" ctrl_latitude_hi="0.000072390" ctrl_longitude_hi="0.000003190"/>
      <markings>
        <marking value="Double Solid Yellow"/>
        <marking value="Taxiway Edge Lights (Blue)"/>
      </markings>
    </object>
    <object class="WED_AirportNode" id="3138" parent_id="3134">
      <children/>
      <hierarchy name="Node 4" locked="0" hidden="0"/>
      <point latitude="30.645810845" longitude="-88.076029104" split="1" ctrl_latitude_lo="-0.000008184" ctrl_longitude_lo="-0.000008561" ctrl_latitude_hi="0.000003109" ctrl_longitude_hi="0.000013880"/>
      <markings>
        <marking value="Solid White (Roadway)"/>
      </markings>
    </object>
    <object class="WED_AirportNode" id="1108" parent_id="1107">
      <children/>
      <hierarchy name="Node 1" locked="0" hidden="0"/>
      <point latitude="30.632212969" longitude="-88.071655911" split="0" ctrl_latitude_lo="0.0" ctrl_longitude_lo="0.0" ctrl_latitude_hi="0.0" ctrl_longitude_hi="0.0"/>
      <markings>
        <marking value="Solid Yellow"/>
        <marking value="Taxiway Centerline Lights (Green)"/>
      </markings>
    </object>
    <object class="WED_AirportNode" id="455" parent_id="451">
      <children/>
      <hierarchy name="unnamed entity" locked="0" hidden="0"/>
      <point latitude="30.629648680" longitude="-88.069850560" split="0" ctrl_latitude_lo="0.0" ctrl_longitude_lo="0.0" ctrl_latitude_hi="0.0" ctrl_longitude_hi="0.0"/>
      <markings>
        <marking value="Double Solid Yellow"/>
        <marking value="Taxiway Edge Lights (Blue)"/>
      </markings>
    </object>
    <object class="WED_AirportChain" id="1000" parent_id="15">
      <children>
        <child id="1001"/>
        <child id="1004"/>
        <child id="1003"/>
        <child id="1005"/>
        <child id="1493"/>
        <child id="1006"/>
        <child id="1007"/>
        <child id="1002"/>
      </children>
      <hierarchy name="A2" locked="0" hidden="0"/>
      <airport_chain closed="0"/>
    </object>
    <object class="WED_AirportChain" id="1110" parent_id="15">
      <children>
        <child id="1111"/>
        <child id="1150"/>
        <child id="1112"/>
      </children>
      <hierarchy name="Linear Feature 27" locked="0" hidden="0"/>
      <airport_chain closed="0"/>
    </object>
    <object class="WED_AirportNode" id="1519" parent_id="1517">
      <children/>
      <hierarchy name="Node 2" locked="0" hidden="0"/>
      <point latitude="30.622822871" longitude="-88.065904464" split="0" ctrl_latitude_lo="0.0" ctrl_longitude_lo="0.0" ctrl_latitude_hi="0.0" ctrl_longitude_hi="0.0"/>
      <markings>
        <marking value="Solid Yellow"/>
        <marking value="Taxiway Centerline Lights (Green)"/>
      </markings>
    </object>
    <object class="WED_AirportNode" id="1120" parent_id="1119">
      <children/>
      <hierarchy name="Node 1" locked="0" hidden="0"/>
      <point latitude="30.633020152" longitude="-88.070391221" split="0" ctrl_latitude_lo="0.0" ctrl_longitude_lo="0.0" ctrl_latitude_hi="0.0" ctrl_longitude_hi="0.0"/>
      <markings>
        <marking value="Solid Yellow"/>
        <marking value="Taxiway Centerline Lights (Green)"/>
      </markings>
    </object>
    <object class="WED_AirportNode" id="507" parent_id="501">
      <children/>
      <hierarchy name="unnamed entity" locked="0" hidden="0"/>
      <point latitude="30.628730970" longitude="-88.069410810" split="0" ctrl_latitude_lo="0.0" ctrl_longitude_lo="0.0" ctrl_latitude_hi="0.0" ctrl_longitude_hi="0.0"/>
      <markings>
        <marking value="Double Solid Yellow"/>
        <marking value="Taxiway Edge Lights (Blue)"/>
      </markings>
    </object>
    <object class="WED_AirportChain" id="3144" parent_id="2458">
      <children>
        <child id="3145"/>
        <child id="3287"/>
        <child id="3288"/>
        <child id="3146"/>
        <child id="3147"/>
        <child id="3148"/>
      </children>
      <hierarchy name="Hole 23" locked="0" hidden="0"/>
      <airport_chain closed="1"/>
    </object>
    <object class="WED_AirportNode" id="1004" parent_id="1000">
      <children/>
      <hierarchy name="Node 1" locked="0" hidden="0"/>
      <point latitude="30.632396164" longitude="-88.076689254" split="1" ctrl_latitude_lo="-0.000314146" ctrl_longitude_lo="0.000290411" ctrl_latitude_hi="0.000322525" ctrl_longitude_hi="-0.000308176"/>
      <markings>
        <marking value="Solid Yellow"/>
        <marking value="Taxiway Centerline Lights (Green)"/>
      </markings>
    </object>
    <object class="WED_AirportNode" id="1513" parent_id="1510">
      <children/>
      <hierarchy name="Node 1" locked="0" hidden="0"/>
      <point latitude="30.614865663" longitude="-88.058252568" split="1" ctrl_latitude_lo="-0.000161714" ctrl_longitude_lo="0.000002328" ctrl_latitude_hi="0.000280708" ctrl_longitude_hi="-0.000006798"/>
      <markings>
        <marking value="Road Edge Dash (Black)"/>
      </markings>
    </object>
    <object class="WED_AirportChain" id="1122" parent_id="15">
      <children>
        <child id="1123"/>
        <child id="1146"/>
        <child id="1124"/>
      </children>
      <hierarchy name="Linear Feature 31" locked="0" hidden="0"/>
      <airport_chain closed="0"/>
    </object>
    <object class="WED_AirportNode" id="3130" parent_id="3129">
      <children/>
      <hierarchy name="Node 1" locked="0" hidden="0"/>
      <point latitude="30.645633260" longitude="-88.076033325" split="1" ctrl_latitude_lo="0.000012559" ctrl_longitude_lo="-0.000001619" ctrl_latitude_hi="-0.000003527" ctrl_longitude_hi="-0.000001025"/>
      <markings>
        <marking value="Solid White (Roadway)"/>
      </markings>
    </object>
    <object class="WED_ObjPlacement" id="4533" parent_id="4505">
      <children/>
      <hierarchy name="light_palloluce_metal.obj" locked="0" hidden="0"/>
      <point latitude="30.638886003" longitude="-88.079308882" heading="106.17"/>
      <obj_placement custom_msl="0" msl="0.0" resource="CDB-Library/Airport/light/light_palloluce_metal.obj" show_level="1 Default"/>
    </object>
    <object class="WED_AirportNode" id="453" parent_id="451">
      <children/>
      <hierarchy name="unnamed entity" locked="0" hidden="0"/>
      <point latitude="30.629509000" longitude="-88.069608590" split="0" ctrl_latitude_lo="0.0" ctrl_longitude_lo="0.0" ctrl_latitude_hi="0.0" ctrl_longitude_hi="0.0"/>
      <markings>
        <marking value="Double Solid Yellow"/>
        <marking value="Taxiway Edge Lights (Blue)"/>
      </markings>
    </object>
    <object class="WED_AirportSign" id="785" parent_id="12">
      <children/>
      <hierarchy name="{@B}6" locked="0" hidden="0"/>
      <point latitude="30.625344430" longitude="-88.072682900" heading="318.90"/>
      <airport_sign style="Default" size="Large Distance Remaining"/>
    </object>
    <object class="WED_ObjPlacement" id="1302" parent_id="1709">
      <children/>
      <hierarchy name="Airport_Light_3_Sodium_6.obj" locked="0" hidden="0"/>
      <point latitude="30.641146916" longitude="-88.074800477" heading="164.56"/>
      <obj_placement custom_msl="0" msl="0.0" resource="MisterX_Library/Airport/Lights/Airport_Light_3_Sodium_6.obj" show_level="1 Default"/>
    </object>
    <object class="WED_AirportSign" id="789" parent_id="12">
      <children/>
      <hierarchy name="{@B}2" locked="0" hidden="0"/>
      <point latitude="30.617080800" longitude="-88.064309730" heading="318.90"/>
      <airport_sign style="Default" size="Large Distance Remaining"/>
    </object>
    <object class="WED_AirportNode" id="2008" parent_id="524">
      <children/>
      <hierarchy name="unnamed entity" locked="0" hidden="0"/>
